"name","lat","lon","top","right","bottom","left","parent","id"
"Belmont Regional Park",-41.166400909424,174.92599487305,-41.1562,174.952,-41.1766,174.9,"",79
"Ben Omar",-44.469699859619,170.05299377441,-44.4697,170.053,-44.4697,170.053,"",81
"Huxley Gorge",-44.177200317383,169.82400512695,-44.1772,169.824,-44.1772,169.824,"",407
"Inch Clutha",-46.279598236084,169.80099487305,-46.2796,169.801,-46.2796,169.801,"",409
"Matokitoki",-38.615699768066,178.01100158691,-38.6157,178.011,-38.6157,178.011,"",578
"Motiti Island",-37.620899200439,176.42700195312,-37.6209,176.427,-37.6209,176.427,"",618
"Mount Cook",-43.962299346924,170.12800598145,-43.9623,170.128,-43.9623,170.128,"",622
"Mount Grand",-45.883401234945,170.45132954915,-45.8721,170.458,-45.8916,170.44,"",624
"Nine Mile",-42.38090133667,171.28300476074,-42.3809,171.283,-42.3809,171.283,"",668
"Otipua Creek",-44.397201538086,171.16900634766,-44.3972,171.169,-44.3972,171.169,"",747
"Scarborough",-44.428600311279,171.25500488281,-44.4286,171.255,-44.4286,171.255,"",933
"Thomsons Ford",-41.494201660156,173.93099975586,-41.4942,173.931,-41.4942,173.931,"",1065
"Totara Peak",-44.398101806641,170.19400024414,-44.3981,170.194,-44.3981,170.194,"",1092
"Washdyke Flat",-44.366100311279,171.20799255371,-44.3661,171.208,-44.3661,171.208,"",1191
"Bridge Hill",-45.262205547757,169.37666659885,-45.2324,169.39,-45.2987,169.332,"Alexandra",108
"Allenton",-43.891083651576,171.74789612869,-43.7896,171.894,-43.9112,171.67,"Ashburton",16
"Elgin",-38.999557987336,177.59425846223,-38.6544,178.005,-43.9591,171.773,"Ashburton",237
"Hampstead",-43.912810134888,171.75999908447,-43.9021,171.81,-43.9591,171.746,"Ashburton",338
"Methven",-43.634915958751,171.64734094793,-43.576,171.722,-43.7896,171.627,"Ashburton",599
"Netherby",-43.899495731701,171.76872877641,-43.8869,171.876,-43.9191,171.753,"Ashburton",647
"Rakaia",-43.752202763277,172.00629335291,-43.6735,172.102,-43.8267,171.779,"Ashburton",854
"Tinwald",-43.916022960956,171.72110220102,-43.8333,171.744,-43.9298,171.578,"Ashburton",1077
"Auckland Central",-36.849919621816,174.76336542004,-36.838,174.779,-36.8667,174.751,"Auckland",42
"Avondale",-38.407144149548,174.23911196326,-36.8707,174.728,-43.5173,172.669,"Auckland",48
"Blockhouse Bay",-36.918271165145,174.70159289711,-36.9077,174.718,-36.9319,174.692,"Auckland",98
"Eden Terrace",-36.864274567249,174.75760725433,-36.8564,174.766,-36.8872,174.749,"Auckland",231
"Ellerslie",-36.895080513424,174.81377834744,-36.8888,174.826,-36.9052,174.8,"Auckland",239
"Epsom",-36.889188112912,174.77167879118,-36.8674,174.808,-36.9083,174.752,"Auckland",244
"Freemans Bay",-36.851739172842,174.75009813496,-36.844,174.758,-36.8584,174.745,"Auckland",278
"Glen Innes",-36.873131084442,174.8642616272,-36.8661,174.881,-36.8795,174.85,"Auckland",289
"Glendowie",-36.860653055125,174.86920823722,-36.8486,174.881,-36.87,174.857,"Auckland",292
"Grafton",-36.863145662391,174.76682712721,-36.8524,174.773,-36.8872,174.761,"Auckland",309
"Greenlane",-36.895494569023,174.79516947045,-36.8821,174.808,-36.9083,174.78,"Auckland",317
"Grey Lynn",-36.861877078102,174.74003760928,-36.8542,174.758,-36.8709,174.725,"Auckland",323
"Herne Bay",-36.844546590533,174.73167855399,-36.8406,174.741,-36.8515,174.724,"Auckland",370
"Hillsborough",-39.894144760935,173.82302669057,-36.9116,174.769,-43.577,172.65,"Auckland",383
"Kingsland",-36.870632048576,174.74348252819,-36.8647,174.752,-36.8784,174.728,"Auckland",472
"Kohimarama",-36.860201915105,174.84424972534,-36.8493,174.856,-36.8769,174.819,"Auckland",478
"Lynfield",-36.929063508005,174.71978713527,-36.9236,174.73,-36.9343,174.714,"Auckland",515
"Meadowbank",-36.869936095344,174.82941733466,-36.8664,174.84,-36.8737,174.82,"Auckland",589
"Mechanics Bay",-36.846698760986,174.78700256348,-36.8462,174.787,-36.8472,174.787,"Auckland",591
"Mission Bay",-36.855983533357,174.83194772821,-36.8493,174.836,-36.8625,174.824,"Auckland",606
"Mt Albert",-36.885018326854,174.7194878964,-36.8731,174.801,-36.9208,174.705,"Auckland",625
"Mt Eden",-36.88243648593,174.75380395644,-36.8665,174.768,-36.9018,174.739,"Auckland",627
"Mt Roskill",-36.912042703714,174.73517567403,-36.8937,174.754,-36.9337,174.714,"Auckland",630
"Mt Wellington",-36.90644698175,174.83836262338,-36.8814,174.861,-36.9341,174.818,"Auckland",632
"Newmarket",-36.868415594101,174.77824878693,-36.851,174.801,-36.881,174.772,"Auckland",655
"One Tree Hill",-36.906047986901,174.79425977624,-36.8975,174.802,-36.9106,174.784,"Auckland",711
"Onehunga",-36.917944881894,174.78900930422,-36.9072,174.808,-36.9313,174.768,"Auckland",712
"Orakei",-36.855885482416,174.81909626286,-36.8454,174.832,-36.8622,174.809,"Auckland",728
"Otahuhu",-36.942784539584,174.84507751465,-36.917,174.86,-36.9559,174.811,"Auckland",734
"Panmure",-36.897164106369,174.85745286942,-36.8866,174.868,-36.9067,174.837,"Auckland",769
"Parnell",-36.855163055716,174.78230181944,-36.8489,174.819,-36.8638,174.772,"Auckland",791
"Penrose",-36.913754549893,174.81439347701,-36.9033,174.838,-36.9263,174.798,"Auckland",795
"Point Chevalier",-36.864523569743,174.70634735955,-36.8537,174.718,-36.8776,174.698,"Auckland",813
"Point England",-36.885024235166,174.86272351495,-36.8746,174.869,-36.8942,174.856,"Auckland",815
"Ponsonby",-36.850816656042,174.74024143925,-36.843,174.749,-36.8563,174.731,"Auckland",820
"Rakino Island",-36.718985421317,174.94871956961,-36.7138,174.951,-36.7248,174.947,"Auckland",855
"Remuera",-36.876960865935,174.80126917432,-36.8623,174.829,-36.8941,174.779,"Auckland",877
"Royal Oak",-36.908408771862,174.76869802764,-36.8959,174.782,-36.9147,174.742,"Auckland",917
"Sandringham",-36.887301112829,174.73743807332,-36.8755,174.75,-36.9013,174.728,"Auckland",930
"St Heliers",-36.855225026608,174.8589527607,-36.8455,174.88,-36.8663,174.846,"Auckland",974
"St Johns",-36.878431581983,174.84064708037,-36.8732,174.854,-36.8889,174.824,"Auckland",975
"St Marys Bay",-36.844381544325,174.74547944246,-36.8413,174.75,-36.8475,174.741,"Auckland",979
"Three Kings",-36.90681545551,174.75546264648,-36.8975,174.764,-36.9147,174.742,"Auckland",1067
"Waiheke Island",-36.782699584961,175.0120010376,-36.7743,175.061,-36.8024,174.989,"Auckland",1125
"Waterview",-36.878447281687,174.69921232525,-36.8735,174.704,-36.8845,174.697,"Auckland",1194
"Western Springs",-36.869655397203,174.72966512044,-36.8607,174.736,-36.8732,174.712,"Auckland",1213
"Westmere",-37.343568108299,174.76902320168,-36.8515,175.021,-39.9305,174.712,"Auckland",1215
"Stirling",-46.247694651286,169.78155602349,-46.2333,169.793,-46.2586,169.766,"Balclutha",985
"Blenheim Central",-41.516402143113,173.95667023354,-41.505,173.971,-41.5333,173.941,"Blenheim",97
"Grovetown",-41.482688691881,173.96905517578,-41.4696,173.979,-41.4969,173.961,"Blenheim",326
"Islington",-43.110866315437,172.81942379113,-41.5064,174,-43.566,172.482,"Blenheim",418
"Mayfield",-41.505275726318,173.95548221983,-41.4962,173.964,-41.5115,173.945,"Blenheim",587
"Omaka",-41.526799519857,173.92883555094,-41.5192,173.937,-41.531,173.897,"Blenheim",706
"Redwoodtown",-41.529003647138,173.95356635328,-41.5228,173.965,-41.5335,173.941,"Blenheim",874
"Renwick",-41.509171999418,173.82815356132,-41.5017,173.837,-41.5133,173.817,"Blenheim",878
"Riversdale",-41.505453491211,173.96833394368,-41.5028,173.974,-41.5086,173.963,"Blenheim",891
"Spring Creek",-41.458799680074,173.96033350627,-41.4525,173.969,-41.4743,173.893,"Blenheim",965
"Springlands",-41.507021169193,173.93657346632,-41.4996,173.952,-41.5192,173.893,"Blenheim",968
"Witherlea",-41.539661293599,173.95285056954,-41.5263,173.969,-41.6023,173.937,"Blenheim",1245
"Woodbourne",-41.511738410363,173.86638465294,-41.509,173.873,-41.5145,173.858,"Blenheim",1247
"Yelverton",-41.514500617981,173.93099975586,-41.5111,173.936,-41.5192,173.926,"Blenheim",1259
"Cape Foulwind",-41.749500274658,171.48199462891,-41.7495,171.482,-41.7495,171.482,"Buller",144
"Granity",-41.630299159459,171.85499790737,-41.6275,171.868,-41.635,171.849,"Buller",311
"Hector",-41.60593587702,171.88118119673,-41.6023,171.883,-41.6117,171.871,"Buller",360
"Ngakawau",-41.610150337219,171.87600326538,-41.6091,171.88,-41.6117,171.871,"Buller",658
"Reefton",-42.112871805827,171.86323369344,-42.0662,171.921,-42.1225,171.846,"Buller",875
"Waimangaroa",-41.712799072266,171.76300048828,-41.7128,171.763,-41.7128,171.763,"Buller",1143
"Westport",-41.755977043739,171.60567673903,-41.7368,171.631,-41.7967,171.596,"Buller",1220
"Ohakea",-40.197724819183,175.37937545776,-40.1955,175.385,-40.1998,175.375,"Bulls",693
"Leamington",-37.908757052579,175.47536141532,-37.8866,175.566,-37.9663,175.431,"Cambridge",495
"Carterton",-41.027288600377,175.52230006627,-41.0116,175.546,-41.0481,175.497,"Carterton",147
"Clareville",-41.010959625244,175.54120178223,-41.0063,175.549,-41.0212,175.531,"Carterton",165
"Parkvale",-38.718009047075,176.44696405584,-37.7147,176.868,-41.0314,175.52,"Carterton",788
"Otane",-39.897045135498,176.62694719103,-39.8931,176.632,-39.9113,176.621,"Central Hawke's Bay",741
"Takapau",-40.021949768066,176.35378592355,-39.9694,176.391,-40.0316,176.341,"Central Hawke's Bay",1011
"Waipawa",-39.939083735148,176.59104774112,-39.8912,176.622,-39.9479,176.513,"Central Hawke's Bay",1158
"Waipukurau",-39.991341500055,176.5243577503,-39.0714,176.627,-40.1621,174.03,"Central Hawke's Bay",1160
"Alexandra",-45.249307195824,169.38891601562,-45.2197,169.434,-45.2834,169.356,"Central Otago",12
"Clyde",-45.189264482067,169.32338591545,-45.1779,169.334,-45.1955,169.312,"Central Otago",175
"Cromwell",-45.043275608736,169.19669641233,-45.0301,169.218,-45.0519,169.18,"Central Otago",196
"Dumbarton",-45.605598449707,169.32699584961,-45.6056,169.327,-45.6056,169.327,"Central Otago",218
"Ranfurly",-45.127249908447,170.10130004883,-45.1217,170.109,-45.1322,170.09,"Central Otago",857
"Roxburgh",-45.536812464396,169.31266657511,-45.4381,169.318,-45.5546,169.304,"Central Otago",915
"Roxburgh East",-45.509601593018,169.31799316406,-45.5096,169.318,-45.5096,169.318,"Central Otago",916
"Addington",-43.542936518572,172.61413043478,-43.5321,172.643,-43.5485,172.581,"Christchurch",4
"Akaroa",-43.808573596882,172.96411363134,-43.7675,172.994,-43.8445,172.792,"Christchurch",8
"Aranui",-43.510767650604,172.70812454224,-43.5064,172.72,-43.5173,172.697,"Christchurch",26
"Avonhead",-43.515220043088,172.55179387873,-43.4979,172.566,-43.5262,172.537,"Christchurch",50
"Avonside",-43.521131396294,172.67031240463,-43.5146,172.681,-43.5298,172.651,"Christchurch",51
"Barrington",-43.558645672268,172.61076376173,-43.5469,172.627,-43.5728,172.59,"Christchurch",64
"Beckenham",-43.560352998621,172.64188340131,-43.5399,172.647,-43.5685,172.637,"Christchurch",70
"Belfast",-43.450916061401,172.63067962646,-43.441,172.653,-43.4625,172.59,"Christchurch",72
"Bexley",-43.517135302226,172.7122074763,-43.5103,172.725,-43.526,172.699,"Christchurch",84
"Bishopdale",-43.231065682804,172.66682254567,-41.292,173.269,-43.4995,172.577,"Christchurch",89
"Bottle Lake",-43.450700759888,172.67749786377,-43.4416,172.687,-43.4598,172.668,"Christchurch",104
"Bromley",-43.536448022594,172.69178373917,-43.5221,172.707,-43.5454,172.681,"Christchurch",118
"Brooklands",-41.926140158517,173.17122977121,-39.0685,174.088,-43.4416,172.672,"Christchurch",120
"Broomfield",-43.525605051141,172.53205389726,-43.5212,172.536,-43.5342,172.528,"Christchurch",123
"Bryndwr",-43.510618730025,172.59304670854,-43.4949,172.602,-43.5209,172.576,"Christchurch",126
"Burnside",-43.91402721405,172.21682947332,-43.4979,172.593,-45.9039,170.41,"Christchurch",131
"Burwood",-43.497933562921,172.6841832375,-43.4864,172.712,-43.5148,172.665,"Christchurch",134
"Casebrook",-43.477494488024,172.60502749926,-43.4677,172.616,-43.4833,172.591,"Christchurch",148
"Cashmere",-43.574668348881,172.63607025146,-43.562,172.656,-43.5985,172.599,"Christchurch",149
"Christchurch Airport",-43.491230304425,172.54815321702,-43.4836,172.567,-43.5042,172.539,"Christchurch",162
"Christchurch Central",-43.530802895041,172.63828703936,-43.5209,172.651,-43.5524,172.619,"Christchurch",163
"Coutts Island",-43.445820617676,172.60360107422,-43.4336,172.631,-43.4524,172.593,"Christchurch",193
"Dallington",-43.513175848759,172.67539423162,-43.5077,172.682,-43.5205,172.666,"Christchurch",200
"Edgeware",-43.515141431023,172.64741157083,-43.5095,172.651,-43.5244,172.642,"Christchurch",234
"Fendalton",-43.521938535902,172.59872309367,-43.5153,172.612,-43.528,172.591,"Christchurch",257
"Ferrymead",-43.559407894428,172.70080801157,-43.5482,172.712,-43.5789,172.693,"Christchurch",261
"Governors Bay",-43.625301361084,172.64700317383,-43.6253,172.647,-43.6253,172.647,"Christchurch",307
"Halswell",-43.576546872895,172.5624754807,-43.5584,172.597,-43.6317,172.513,"Christchurch",332
"Harewood",-43.480714647393,172.57347347862,-43.4592,172.6,-43.4979,172.5,"Christchurch",342
"Heathcote Valley",-43.575029837119,172.70448674382,-43.5678,172.726,-43.5937,172.683,"Christchurch",359
"Hei Hei",-43.532872200012,172.525999705,-43.5212,172.54,-43.539,172.508,"Christchurch",361
"Hoon Hay",-43.564013177222,172.59704371861,-43.5536,172.619,-43.5947,172.571,"Christchurch",391
"Hornby",-43.548556837925,172.53222141709,-43.5342,172.561,-43.5955,172.478,"Christchurch",394
"Hornby South",-43.558269207294,172.51869319035,-43.5521,172.537,-43.5668,172.512,"Christchurch",395
"Ilam",-43.517473313867,172.57217053669,-43.4995,172.586,-43.5277,172.562,"Christchurch",408
"Kainga",-43.412233479818,172.66353251139,-43.4035,172.673,-43.4328,172.651,"Christchurch",431
"Kennedys Bush",-43.604688167572,172.58699989319,-43.5928,172.604,-43.6327,172.56,"Christchurch",460
"Linwood",-43.528600182332,172.67231041277,-43.5146,172.702,-43.5385,172.651,"Christchurch",504
"Lyttelton",-43.601242120715,172.71837671252,-43.5913,172.742,-43.6085,172.701,"Christchurch",518
"Mairehau",-43.499631580554,172.64364443327,-43.4873,172.654,-43.5081,172.624,"Christchurch",526
"Marshland",-43.477809299122,172.6715892445,-43.4416,172.687,-43.495,172.633,"Christchurch",565
"Mcleans Island",-43.481375694275,172.48624801636,-43.4682,172.521,-43.5005,172.428,"Christchurch",588
"Merivale",-43.517676774846,172.61860408339,-43.5083,172.638,-43.5225,172.603,"Christchurch",597
"Middleton",-43.543883514404,172.59216766357,-43.5355,172.604,-43.5513,172.574,"Christchurch",601
"Mt Pleasant",-43.564135520689,172.71891907723,-43.5561,172.732,-43.5758,172.711,"Christchurch",629
"New Brighton",-43.5202293396,172.72714451381,-43.5012,172.735,-43.5276,172.692,"Christchurch",648
"North Beach",-43.491441488266,172.71645927429,-43.486,172.735,-43.5185,172.703,"Christchurch",673
"Northcote",-39.131530281349,174.00165959111,-36.7882,174.757,-43.4977,172.59,"Christchurch",677
"Northwood",-43.458666074074,172.61366065074,-43.4524,172.622,-43.4656,172.59,"Christchurch",682
"Opawa",-43.554594541851,172.66284099378,-43.5467,172.672,-43.5594,172.658,"Christchurch",723
"Papanui",-43.497463017294,172.60165760615,-43.4526,172.628,-43.5083,172.576,"Christchurch",774
"Parklands",-43.477859265877,172.69958557745,-43.4693,172.712,-43.4885,172.681,"Christchurch",786
"Phillipstown",-43.536055845373,172.659354266,-43.5334,172.671,-43.5403,172.643,"Christchurch",798
"Redcliffs",-43.566243817729,172.73969342632,-43.5567,172.763,-43.5742,172.724,"Christchurch",870
"Redwood",-43.476049872006,172.62448591344,-43.4656,172.649,-43.4983,172.616,"Christchurch",873
"Riccarton",-43.531529098749,172.59863960743,-43.5244,172.612,-43.5427,172.581,"Christchurch",881
"Richmond",-42.213608285655,172.66472381471,-41.3251,173.211,-46.4178,168.357,"Christchurch",882
"Russley",-43.497110220102,172.56428097456,-43.4879,172.576,-43.5205,172.544,"Christchurch",925
"Shirley",-43.497299871137,172.66158048568,-43.4743,172.674,-43.5085,172.655,"Christchurch",946
"Sockburn",-43.534796054547,172.55584628765,-43.5282,172.581,-43.5474,172.51,"Christchurch",952
"Somerfield",-43.558796564738,172.62933298747,-43.5524,172.635,-43.5653,172.619,"Christchurch",954
"South New Brighton",-43.527599334717,172.73500061035,-43.5276,172.735,-43.5276,172.735,"Christchurch",959
"Southshore",-43.546812295914,172.74587249756,-43.5185,172.751,-43.5571,172.735,"Christchurch",962
"Spreydon",-43.551612091064,172.61982498169,-43.5478,172.632,-43.557,172.604,"Christchurch",964
"St Albans",-43.508596137018,172.63096120098,-43.4971,172.643,-43.5266,172.616,"Christchurch",971
"St Martins",-43.562539815903,172.6530828476,-43.5528,172.66,-43.5796,172.647,"Christchurch",978
"Strowan",-43.508454249455,172.60843482384,-43.5014,172.619,-43.5176,172.599,"Christchurch",992
"Styx",-43.444544474284,172.66533237033,-43.4162,172.693,-43.4743,172.649,"Christchurch",993
"Sumner",-43.576249782856,172.76430716881,-43.5679,172.784,-43.5883,172.751,"Christchurch",994
"Sydenham",-43.549477934837,172.63839689891,-43.5342,172.659,-43.5627,172.622,"Christchurch",1001
"Templeton",-43.55312538147,172.46854082743,-43.5352,172.51,-43.5752,172.426,"Christchurch",1057
"Upper Riccarton",-43.528224945068,172.57324981689,-43.5218,172.592,-43.5304,172.539,"Christchurch",1111
"Waimairi Beach",-43.480955123901,172.71772003174,-43.4693,172.722,-43.4856,172.698,"Christchurch",1141
"Wainoni",-43.520855373806,172.6861493146,-43.5146,172.699,-43.5252,172.669,"Christchurch",1148
"Waltham",-43.546402139867,172.65485073658,-43.5378,172.677,-43.5582,172.635,"Christchurch",1182
"Westmorland",-43.582285376156,172.60400031595,-43.5758,172.62,-43.5985,172.597,"Christchurch",1217
"Wigram",-43.550406519572,172.55890096029,-43.542,172.579,-43.5646,172.535,"Christchurch",1239
"Woolston",-43.548852629581,172.67838132179,-43.5375,172.691,-43.5672,172.664,"Christchurch",1255
"Yaldhurst",-43.506019592285,172.52720031738,-43.4885,172.555,-43.535,172.515,"Christchurch",1258
"Balclutha",-46.238613171048,169.73856709798,-46.16,169.849,-46.3602,169.554,"Clutha",61
"Clinton",-46.199975286211,169.37335750035,-46.118,169.5,-46.2503,169.166,"Clutha",170
"Finegand",-46.252899169922,169.72799682617,-46.2529,169.728,-46.2529,169.728,"Clutha",262
"Gabriels Gully",-45.877099990845,169.73600006104,-45.8723,169.792,-45.8819,169.68,"Clutha",281
"Kaitangata",-46.280697995966,169.84745511142,-46.2167,169.889,-46.3147,169.83,"Clutha",435
"Lawrence",-45.917929710226,169.68591503387,-45.8468,169.733,-45.986,169.585,"Clutha",493
"Milton",-46.122801409827,169.9681807624,-46.061,170.025,-46.1846,169.952,"Clutha",604
"Owaka",-46.449652132781,169.65860847805,-46.3602,169.708,-46.4899,169.56,"Clutha",753
"Tapanui",-45.944764660251,169.26361428538,-45.9407,169.272,-45.9494,169.243,"Clutha",1022
"Coromandel",-36.752505151849,175.50118335925,-36.7125,175.508,-36.7735,175.484,"Coromandel",190
"Preece Point",-36.773250579834,175.50574874878,-36.7699,175.51,-36.7761,175.503,"Coromandel",833
"Tairua",-37.001910676347,175.8530435765,-36.9895,175.87,-37.01,175.837,"Coromandel",1006
"Te Rerenga",-36.739749908447,175.60050201416,-36.7393,175.603,-36.7402,175.598,"Coromandel",1054
"Thames",-37.140660944993,175.54803317931,-37.0933,175.599,-37.1706,175.519,"Coromandel",1060
"Whangamata",-37.209668575189,175.86969268016,-37.1051,175.883,-37.2273,175.819,"Coromandel",1227
"Whitianga",-36.825988847382,175.69868406958,-36.7922,175.708,-36.845,175.677,"Coromandel",1236
"Abbotsford",-45.895553452628,170.42696435111,-45.8878,170.444,-45.9009,170.416,"Dunedin",2
"Andersons Bay",-45.896193385124,170.53312540054,-45.8882,170.549,-45.9032,170.52,"Dunedin",20
"Balaclava",-45.891049861908,170.47200012207,-45.8868,170.478,-45.8936,170.466,"Dunedin",60
"Belleknowes",-45.875279871623,170.48156534831,-45.8698,170.496,-45.8825,170.473,"Dunedin",75
"Bradford",-45.874735968454,170.46771240234,-45.8696,170.473,-45.8802,170.453,"Dunedin",106
"Brighton",-45.089786962136,171.16685690339,-43.4885,172.734,-45.9498,170.308,"Dunedin",110
"Broad Bay",-45.85034942627,170.6220993042,-45.8443,170.634,-45.8751,170.582,"Dunedin",114
"Brockville",-45.86777220832,170.45716518826,-45.864,170.465,-45.8711,170.452,"Dunedin",117
"Calton Hill",-45.899247233073,170.46993306478,-45.8954,170.475,-45.9035,170.463,"Dunedin",136
"Careys Bay",-45.808656964983,170.62099783761,-45.807,170.624,-45.8105,170.619,"Dunedin",145
"Caversham",-45.896915893555,170.48192047119,-45.8927,170.493,-45.9052,170.473,"Dunedin",155
"Chain Hills",-45.895300292969,170.38720092773,-45.8911,170.41,-45.9026,170.36,"Dunedin",156
"Clyde Hill",-45.8919506073,170.48466491699,-45.8903,170.488,-45.8946,170.478,"Dunedin",176
"Company Bay",-45.855518341064,170.60354752974,-45.8494,170.613,-45.8633,170.599,"Dunedin",184
"Concord",-45.909499577114,170.45693097796,-45.9036,170.467,-45.9185,170.447,"Dunedin",185
"Corstorphine",-45.9073825163,170.47200101965,-45.9035,170.478,-45.9118,170.464,"Dunedin",192
"Dalmore",-45.84667523702,170.51500066121,-45.7926,170.534,-45.853,170.511,"Dunedin",201
"Dunedin Central",-45.87647619981,170.50366997352,-45.8633,170.546,-45.9017,170.479,"Dunedin",220
"Dunedin North",-45.863713335635,170.51314874905,-45.8555,170.526,-45.8726,170.496,"Dunedin",221
"Dunedin South",-45.894915135701,170.49995040894,-45.8834,170.511,-45.9017,170.49,"Dunedin",222
"East Taieri",-45.89527130127,170.33928789411,-45.8909,170.352,-45.8979,170.326,"Dunedin",226
"Fairfield",-40.6424741745,173.93950810926,-37.7493,175.29,-45.913,170.361,"Dunedin",246
"Forbury",-45.900114876883,170.48857334682,-45.8986,170.491,-45.9052,170.486,"Dunedin",268
"Glenleith",-45.842846679687,170.49900004069,-45.8366,170.504,-45.8491,170.493,"Dunedin",297
"Glenross",-45.865785326277,170.47214181083,-45.8646,170.478,-45.8677,170.465,"Dunedin",299
"Green Island",-45.903723765228,170.42998362396,-45.898,170.447,-45.9358,170.366,"Dunedin",315
"Halfway Bush",-45.854720592499,170.46733347575,-45.8471,170.483,-45.859,170.428,"Dunedin",331
"Helensburgh",-45.850562810898,170.484623909,-45.8448,170.497,-45.8565,170.477,"Dunedin",363
"Highcliff",-45.88809967041,170.55200195312,-45.8881,170.552,-45.8881,170.552,"Dunedin",373
"Kaikorai",-45.865251283388,170.48408095901,-45.8566,170.492,-45.8802,170.47,"Dunedin",427
"Kenmure",-45.885507174901,170.46953746251,-45.8775,170.477,-45.8916,170.456,"Dunedin",459
"Kensington",-41.013292532701,172.40217296894,-35.6943,174.321,-45.9051,170.493,"Dunedin",461
"Kew",-46.188100068466,169.3741269319,-45.9012,170.484,-46.5112,168.347,"Dunedin",465
"Kinmont Park",-45.894261580247,170.35807565542,-45.8904,170.41,-45.9026,170.336,"Dunedin",476
"Lawyers Head",-45.906549453735,170.52899932861,-45.9055,170.538,-45.9076,170.52,"Dunedin",494
"Leith Valley",-45.825499534607,170.50074768066,-45.8197,170.51,-45.8331,170.49,"Dunedin",497
"Liberton",-45.845787945916,170.51706112132,-45.8429,170.521,-45.8495,170.512,"Dunedin",499
"Lookout Point",-45.894100189209,170.47174835205,-45.8936,170.473,-45.8949,170.471,"Dunedin",507
"Macandrew Bay",-45.868674850464,170.59715194702,-45.861,170.609,-45.8742,170.589,"Dunedin",519
"Maori Hill",-45.858760740699,170.50000037217,-45.8526,170.507,-45.8659,170.491,"Dunedin",553
"Maryhill",-45.888452257429,170.47833397275,-45.8848,170.483,-45.8915,170.474,"Dunedin",569
"Mornington",-45.444996246925,170.89382641132,-41.3166,174.786,-45.8886,170.474,"Dunedin",614
"Mosgiel",-45.875837494345,170.35329392377,-45.8625,170.376,-45.8911,170.315,"Dunedin",617
"Musselburgh",-45.89726357711,170.51684409694,-45.8921,170.527,-45.9026,170.503,"Dunedin",637
"Normanby",-41.640968958537,173.03035699754,-39.5242,174.281,-45.8515,170.531,"Dunedin",669
"North East Valley",-45.849750743193,170.52984690947,-45.8431,170.543,-45.8566,170.516,"Dunedin",674
"Ocean Grove",-45.903939819336,170.54840087891,-45.903,170.553,-45.9044,170.543,"Dunedin",690
"Opoho",-45.854594548543,170.53088802762,-45.8511,170.543,-45.857,170.524,"Dunedin",724
"Outram",-45.850149869919,170.2271232605,-45.7492,170.293,-45.872,170.172,"Dunedin",752
"Pine Hill",-45.836272846569,170.52827453613,-45.8214,170.545,-45.8418,170.52,"Dunedin",802
"Port Chalmers",-45.817947488082,170.61994773463,-45.7973,170.627,-45.8263,170.607,"Dunedin",826
"Portobello",-45.84166087275,170.6493908426,-45.8105,170.693,-45.8814,170.594,"Dunedin",831
"Ravensbourne",-45.863471181769,170.5546320865,-45.8591,170.566,-45.8669,170.544,"Dunedin",867
"Roseneath",-42.902451299852,173.30919376496,-41.2877,174.803,-45.8369,170.588,"Dunedin",904
"Roslyn",-41.704690475464,174.36016652425,-40.3104,175.644,-45.8764,170.483,"Dunedin",906
"Saint Clair",-45.908566611154,170.48726072766,-45.9,170.51,-45.9167,170.476,"Dunedin",927
"Saint Kilda",-45.902931962694,170.50610787528,-45.8982,170.521,-45.9068,170.493,"Dunedin",928
"Saint Leonards",-45.848144721985,170.5769493103,-45.8402,170.584,-45.8559,170.571,"Dunedin",929
"Sawyers Bay",-45.819546063741,170.59870910645,-45.8069,170.612,-45.8369,170.583,"Dunedin",932
"Shiel Hill",-45.887246645414,170.54338308481,-45.8814,170.594,-45.8925,170.533,"Dunedin",945
"Tainui",-45.90052617391,170.52459818522,-45.8982,170.529,-45.903,170.52,"Dunedin",1004
"The Glen",-45.889080429077,170.48679962158,-45.8861,170.491,-45.896,170.479,"Dunedin",1063
"Upper Junction",-45.838967641195,170.55999755859,-45.8311,170.573,-45.8492,170.545,"Dunedin",1108
"Vauxhall",-45.884632873535,170.53519999186,-45.8751,170.582,-45.891,170.525,"Dunedin",1114
"Waikouaiti",-45.598821503775,170.67853682382,-45.5827,170.704,-45.6139,170.665,"Dunedin",1138
"Wakari",-45.858679378734,170.48314666748,-45.8541,170.491,-45.8632,170.474,"Dunedin",1176
"Waldronville",-45.922224680583,170.40525054932,-45.9133,170.417,-45.9261,170.399,"Dunedin",1179
"Waverley",-44.514944500393,171.08050000226,-39.7578,174.638,-46.3965,168.366,"Dunedin",1197
"Westwood",-45.921699523926,170.3869934082,-45.9217,170.387,-45.9217,170.387,"Dunedin",1222
"Woodhaugh",-45.845699310303,170.50675201416,-45.8406,170.509,-45.8531,170.504,"Dunedin",1251
"Cable Bay",-34.994395380435,173.49300152323,-34.9908,173.503,-35.0085,173.474,"Far North",135
"Coopers Beach",-34.991205427382,173.51488749186,-34.9873,173.525,-34.9951,173.507,"Far North",188
"Kaikohe",-35.407224723271,173.79901722499,-35.3623,173.831,-35.5154,173.779,"Far North",426
"Kaitaia",-35.11162645271,173.26279532191,-35.0787,173.32,-35.1379,173.242,"Far North",434
"Kawakawa",-35.381247052959,174.06847007602,-35.3367,174.115,-35.4322,174.029,"Far North",450
"Kerikeri",-35.224063615541,173.95754076983,-35.2039,173.994,-35.2419,173.933,"Far North",464
"Mangonui",-34.992609596252,173.53089904785,-34.987,173.539,-35.0015,173.525,"Far North",544
"Opua",-35.315211800968,174.1103255328,-35.3053,174.119,-35.3351,174.047,"Far North",726
"Paihia",-35.288799734677,174.09035402186,-35.2737,174.099,-35.3057,174.021,"Far North",762
"Peria",-35.028198242188,173.49699401855,-35.0282,173.497,-35.0282,173.497,"Far North",796
"Russell",-35.261227169552,174.1259716137,-35.2461,174.19,-35.2975,174.119,"Far North",924
"Taipa",-35.001459884644,173.468800354,-34.9926,173.492,-35.0412,173.46,"Far North",1005
"Clarks Beach",-37.136800032396,174.70277052659,-37.1344,174.731,-37.1388,174.696,"Franklin",166
"Pukekohe",-37.20326708487,174.89872230832,-37.1646,174.922,-37.2349,174.821,"Franklin",837
"Tuakau",-37.261823145549,174.9455502828,-37.2268,174.966,-37.2877,174.922,"Franklin",1099
"Waiuku",-37.248591760192,174.73300941544,-37.2336,174.752,-37.2863,174.688,"Franklin",1172
"Awapuni",-40.232673358917,175.78958295186,-38.6544,178.054,-40.3851,175.567,"Gisborne",55
"Gisborne",-38.661848644878,178.01695215979,-38.652,178.028,-38.6712,177.984,"Gisborne",285
"Inner Kati",-38.670675365741,178.04010737492,-38.6485,178.059,-38.6866,178.008,"Gisborne",412
"Makaraka",-38.647749710083,177.97020111084,-38.6424,177.98,-38.6514,177.957,"Gisborne",529
"Mangapapa",-38.645533723651,178.01643342792,-38.6352,178.029,-38.6569,178.007,"Gisborne",536
"Okitu",-38.655662536621,178.10324668884,-38.5386,178.227,-38.6752,178.079,"Gisborne",703
"Outer Kaiti",-38.674611505472,178.05354712144,-38.6632,178.062,-38.6868,178.04,"Gisborne",751
"Riverdale",-38.642181512081,177.99812178178,-38.6019,178.019,-38.6544,177.962,"Gisborne",887
"Ruatoria",-37.8907772411,178.32304590399,-37.8545,178.36,-37.9,178.307,"Gisborne",919
"Tamarau",-38.69340133667,178.05799865723,-38.6934,178.058,-38.6934,178.058,"Gisborne",1016
"Te Hapara",-38.653587016654,177.99776637301,-38.6441,178.01,-38.66,177.934,"Gisborne",1042
"Te Karaka",-38.46360651652,177.85893452962,-38.3984,177.956,-38.4769,177.691,"Gisborne",1044
"Wainui",-38.688890630549,178.07082020153,-38.6802,178.077,-38.696,178.055,"Gisborne",1149
"Whataupoko",-38.654834747314,178.03348807401,-38.6229,178.051,-38.6659,178.018,"Gisborne",1231
"East Gore",-46.091848424963,168.96297269254,-46.0598,169.166,-46.118,168.946,"Gore",225
"Gore",-46.040637232463,168.97552744548,-36.9191,174.823,-46.1487,168.911,"Gore",306
"Mataura",-46.193027098974,168.86806297302,-46.1317,168.921,-46.2647,168.822,"Gore",575
"Whiterigg",-46.059799194336,168.98199462891,-46.0598,168.982,-46.0598,168.982,"Gore",1235
"Blackball",-42.361179220265,171.39723836965,-42.3449,171.415,-42.3744,171.357,"Grey",91
"Dobson",-42.454646809896,171.31760050456,-42.4376,171.395,-42.5131,171.296,"Grey",215
"Dunganville",-42.474601745605,171.33700561523,-42.4746,171.337,-42.4746,171.337,"Grey",223
"Greymouth",-42.457906377597,171.20602332889,-42.4473,171.232,-42.5102,171.188,"Grey",324
"Hohonu",-42.633800506592,171.21699523926,-42.6338,171.217,-42.6338,171.217,"Grey",386
"Point Elizabeth",-42.408550262451,171.21299743652,-42.407,171.215,-42.4101,171.211,"Grey",814
"Runanga",-42.400456033102,171.2557804759,-42.3809,171.283,-42.4072,171.247,"Grey",922
"Blaketown",-42.452968798186,171.19478888261,-42.4455,171.199,-42.4734,171.189,"Greymouth",95
"Camerons",-42.547149658203,171.15724945068,-42.5159,171.179,-42.5705,171.14,"Greymouth",140
"Coal Creek",-42.431116739909,171.27583058675,-42.4123,171.385,-42.4487,171.239,"Greymouth",177
"Cobden",-42.436336170543,171.20915037213,-42.4101,171.215,-42.4441,171.202,"Greymouth",180
"Kaiata",-42.474754680287,171.25263699618,-42.4563,171.274,-42.5102,171.2,"Greymouth",425
"Karoro",-42.481033749051,171.1851111518,-42.4715,171.193,-42.5159,171.166,"Greymouth",446
"Marsden",-42.546173604329,171.20926717122,-42.4926,171.272,-42.6158,171.169,"Greymouth",564
"Rapahoe",-42.364381616766,171.24954639782,-42.2721,171.304,-42.3757,171.242,"Greymouth",861
"Rutherglen",-42.531842912946,171.16414424351,-42.5143,171.192,-42.551,171.148,"Greymouth",926
"South Beach",-42.505459056181,171.17541144876,-42.4901,171.192,-42.5349,171.166,"Greymouth",957
"Taylorville",-42.440670013428,171.31239929199,-42.437,171.316,-42.4487,171.296,"Greymouth",1033
"Avalon Industrial",-37.758733113607,175.23566182454,-37.7509,175.239,-37.7668,175.232,"Hamilton",44
"Bader",-37.810261862619,175.29142833891,-37.8065,175.298,-37.8133,175.286,"Hamilton",59
"Beerescourt",-37.767433529808,175.262428647,-37.763,175.27,-37.7767,175.255,"Hamilton",71
"Chartwell",-37.75575530529,175.28199021022,-37.7236,175.299,-37.7662,175.23,"Hamilton",157
"Chedworth",-37.749907860389,175.28361628606,-37.7465,175.288,-37.7526,175.274,"Hamilton",159
"Claudelands",-37.774794729132,175.28684274774,-37.7236,175.299,-37.7818,175.23,"Hamilton",167
"Deanwell",-37.821600107046,175.27661602314,-37.8186,175.281,-37.8236,175.272,"Hamilton",207
"Dinsdale",-37.795412127891,175.24297752809,-37.7832,175.262,-37.8282,175.2,"Hamilton",213
"Enderley",-37.768361954462,175.2963104248,-37.7621,175.304,-37.7772,175.29,"Hamilton",242
"Fairview Downs",-37.76244366169,175.30531263351,-37.7588,175.311,-37.7673,175.299,"Hamilton",251
"Fitzroy",-38.510630778777,174.62569094927,-37.8101,175.318,-39.0533,174.096,"Hamilton",264
"Flagstaff",-37.734064170292,175.25312450954,-37.7249,175.265,-37.7413,175.247,"Hamilton",266
"Forest Lake",-37.77214606603,175.25470987956,-37.7673,175.261,-37.7792,175.248,"Hamilton",270
"Frankton",-39.857602800642,173.39475718907,-37.7772,175.275,-45.031,168.659,"Hamilton",275
"Glenview",-37.822856414012,175.28961533767,-37.8142,175.297,-37.837,175.278,"Hamilton",301
"Grandview Heights",-37.781520271301,175.22369995117,-37.7769,175.228,-37.7862,175.22,"Hamilton",310
"Hamilton Central",-37.789953978165,175.28187096637,-37.7797,175.289,-37.8033,175.274,"Hamilton",334
"Hamilton East",-37.788100121238,175.2999368841,-37.7236,175.325,-37.804,175.23,"Hamilton",335
"Hamilton Lake",-37.800641319968,175.27577417547,-37.7872,175.293,-37.8246,175.267,"Hamilton",336
"Harrowfield",-37.742300033569,175.26149749756,-37.7411,175.267,-37.7435,175.259,"Hamilton",345
"Hillcrest",-37.452061954621,175.28928311256,-36.7849,176.302,-38.1544,174.725,"Hamilton",379
"Huntingdon",-37.742669325608,175.28046241173,-37.7393,175.287,-37.7463,175.267,"Hamilton",403
"Maeroa",-37.776923769996,175.25947643462,-37.7712,175.269,-37.7828,175.255,"Hamilton",520
"Melville",-37.813747940063,175.27561859131,-37.8059,175.293,-37.8289,175.251,"Hamilton",595
"Nawton",-37.777957569469,175.23476648812,-37.7665,175.247,-37.7926,175.213,"Hamilton",642
"North Huntingdon",-37.732358932495,175.28273459042,-37.7287,175.288,-37.7376,175.275,"Hamilton",675
"Northgate Industrial",-37.627900804792,175.1647164481,-36.9103,175.232,-37.7491,174.802,"Hamilton",680
"Puketaha",-37.742298126221,175.31799316406,-37.7423,175.318,-37.7423,175.318,"Hamilton",839
"Pukete",-37.741297974878,175.24126512177,-37.7333,175.267,-37.7469,175.231,"Hamilton",840
"Pukete Industrial",-37.735189225939,175.22655571832,-37.7266,175.237,-37.748,175.221,"Hamilton",841
"Queenwood",-37.747924804688,175.26893806458,-37.7426,175.273,-37.7525,175.261,"Hamilton",849
"Riverlea",-37.805844306946,175.32199954987,-37.8026,175.328,-37.8084,175.316,"Hamilton",890
"Rototuna",-37.735690332228,175.26930704424,-37.7312,175.279,-37.7407,175.261,"Hamilton",913
"Rototuna North",-37.727777567777,175.26488737627,-37.707,175.273,-37.7307,175.257,"Hamilton",914
"Silverdale",-37.795138328306,175.32793500347,-37.7874,175.332,-37.8043,175.322,"Hamilton",947
"St Andrews",-37.752973909731,175.25364826344,-37.7425,175.267,-37.7643,175.242,"Hamilton",972
"Te Awamutu",-38.009165207545,175.32373576694,-37.9709,175.416,-38.0363,175.259,"Hamilton",1040
"Te Rapa Park",-37.738000233968,175.22200012207,-37.7342,175.224,-37.7402,175.22,"Hamilton",1052
"Te Rapa Straight",-37.759555290485,175.24741231984,-37.7426,175.267,-37.7682,175.239,"Hamilton",1053
"Temple View",-37.821036252108,175.22145357999,-37.8182,175.226,-37.8282,175.217,"Hamilton",1056
"Western Heights",-37.98343744278,175.79804801941,-37.7812,176.226,-38.1308,175.229,"Hamilton",1211
"Whitiora",-37.778212785721,175.27149868011,-37.775,175.277,-37.7878,175.267,"Hamilton",1237
"Akina",-39.652908219231,176.84347195095,-39.6468,176.854,-39.6611,176.833,"Hastings",10
"Bridge Pa",-39.645099639893,176.78700256348,-39.6451,176.787,-39.6451,176.787,"Hastings",109
"Camberley",-39.629179840088,176.8165612793,-39.6229,176.828,-39.6491,176.753,"Hastings",137
"Clive",-39.587527303985,176.92275769783,-39.5761,176.938,-39.6101,176.898,"Hastings",171
"Flaxmere",-39.622170697088,176.78269527269,-39.6106,176.801,-39.6337,176.769,"Hastings",267
"Frimley",-39.622631835937,176.82788024902,-39.6109,176.861,-39.6291,176.797,"Hastings",280
"Hastings Central",-39.640876851183,176.84457559788,-39.6303,176.856,-39.6496,176.824,"Hastings",347
"Haumoana",-39.608229827881,176.94890136719,-39.602,176.957,-39.6286,176.944,"Hastings",350
"Havelock North",-39.672668184553,176.88512985428,-39.6445,176.907,-39.7731,176.788,"Hastings",353
"Longlands",-39.651237487793,176.81562805176,-39.6217,176.835,-39.6669,176.79,"Hastings",506
"Mahora",-39.626621145951,176.84665760241,-39.6215,176.855,-39.6348,176.838,"Hastings",523
"Mayfair",-39.63653493482,176.86055808844,-39.6283,176.87,-39.6455,176.85,"Hastings",586
"Raureka",-39.642614969393,176.82687898962,-39.6355,176.838,-39.6498,176.82,"Hastings",866
"St Leonards",-39.634126478626,176.83516127063,-39.6281,176.842,-39.6393,176.83,"Hastings",977
"Te Awanga",-39.633175214132,176.97725041707,-39.6286,176.985,-39.6355,176.957,"Hastings",1041
"Tomoana",-39.61159992218,176.84600067139,-39.6068,176.858,-39.6185,176.837,"Hastings",1089
"Waiohiki",-39.554100036621,176.83700561523,-39.5541,176.837,-39.5541,176.837,"Hastings",1152
"Waipatu",-39.627899169922,176.87300109863,-39.6279,176.873,-39.6279,176.873,"Hastings",1157
"Woolwich",-39.62345123291,176.80599975586,-39.6211,176.811,-39.6258,176.801,"Hastings",1256
"Karangahake",-37.42200088501,175.72099304199,-37.422,175.721,-37.422,175.721,"Hauraki",443
"Ngatea",-37.27696141889,175.49319310342,-37.2594,175.54,-37.3441,175.46,"Hauraki",661
"Paeroa",-37.376033465068,175.67177168528,-37.3628,175.686,-37.3868,175.656,"Hauraki",759
"Turua",-37.245300292969,175.51800537109,-37.2453,175.518,-37.2453,175.518,"Hauraki",1104
"Waihi",-37.420928987682,175.8352393778,-37.3675,175.886,-41.1827,174.957,"Hauraki",1126
"Foxton",-40.473478164673,175.28569946289,-40.4614,175.301,-40.4971,175.276,"Horowhenua",272
"Foxton Beach",-40.463966560364,175.22914911906,-40.4564,175.247,-40.4716,175.217,"Horowhenua",273
"Levin",-40.623523868498,175.28910289827,-40.6007,175.323,-40.6477,175.233,"Horowhenua",498
"Shannon",-40.547641080969,175.41247020048,-40.4924,175.425,-40.5572,175.368,"Horowhenua",942
"Waitarere",-40.586656842913,175.25971766881,-40.5505,175.296,-40.6042,175.203,"Horowhenua",1168
"Amberley",-43.150274092151,172.72925887569,-43.1058,172.754,-43.1633,172.699,"Hurunui",18
"Cheviot",-42.813351898193,173.27148010254,-42.6991,173.315,-42.8827,173.193,"Hurunui",160
"Hanmer Forest Park",-42.500074863434,172.81150054932,-42.4869,172.869,-42.5084,172.773,"Hurunui",339
"Hanmer Springs",-42.519656165171,172.83257513531,-42.4869,172.876,-42.5592,172.772,"Hurunui",340
"Waiau",-42.650468306108,173.04609264027,-42.5173,173.135,-42.6709,172.984,"Hurunui",1124
"Waikari",-42.964586838432,172.6964781388,-42.9203,172.765,-42.9993,172.658,"Hurunui",1134
"Appleby",-46.425981868397,168.35604372892,-46.4167,168.36,-46.4341,168.351,"Invercargill",24
"Ascot",-46.393732706706,168.40166727702,-46.3924,168.407,-46.3951,168.394,"Invercargill",34
"Avenal",-46.401968479156,168.34756183624,-46.3966,168.357,-46.4097,168.343,"Invercargill",45
"Bluff",-46.602215853604,168.34011459351,-46.594,168.358,-46.6122,168.315,"Invercargill",100
"Clifton",-46.4514951204,168.36810383044,-46.4463,168.382,-46.4561,168.359,"Invercargill",169
"Georgetown",-46.420932076194,168.3692259355,-46.4103,168.383,-46.4254,168.357,"Invercargill",283
"Gladstone",-46.393124444144,168.35207094465,-46.3885,168.366,-46.4042,168.343,"Invercargill",286
"Glengarry",-46.403015021122,168.38184795958,-46.3911,168.391,-46.4114,168.368,"Invercargill",294
"Grasmere",-46.383571929932,168.34028137207,-46.3734,168.345,-46.3903,168.325,"Invercargill",312
"Hargest",-46.388157844543,168.37891642253,-46.3859,168.383,-46.3902,168.375,"Invercargill",343
"Hawthorndale",-46.41056227684,168.38581371307,-46.4083,168.393,-46.4135,168.379,"Invercargill",357
"Heidelberg",-46.427307128906,168.38271331787,-46.4208,168.39,-46.4335,168.375,"Invercargill",362
"Invercargill Airport",-46.423999786377,168.32400512695,-46.424,168.324,-46.424,168.324,"Invercargill",414
"Invercargill Central",-46.412003221183,168.35248276283,-46.4014,168.369,-46.4245,168.346,"Invercargill",415
"Invercargill West",-46.415718317032,168.34743785858,-46.4055,168.368,-46.4223,168.34,"Invercargill",416
"Kingswell",-46.440856018066,168.36935913086,-46.4353,168.381,-46.448,168.363,"Invercargill",475
"Lorneville",-46.358800888062,168.34200286865,-46.3581,168.347,-46.3595,168.337,"Invercargill",508
"Motu Rimu",-46.45685005188,168.40400314331,-46.4506,168.41,-46.459,168.397,"Invercargill",619
"Newfield",-46.418571472168,168.3849995931,-46.4135,168.394,-46.4248,168.368,"Invercargill",653
"Prestonville",-46.385150273641,168.3509979248,-46.3833,168.353,-46.3875,168.349,"Invercargill",834
"Queens Park",-46.402165730794,168.35466512044,-46.3946,168.362,-46.4064,168.345,"Invercargill",847
"Rockdale",-46.42080783844,168.39758300781,-46.4136,168.427,-46.4285,168.385,"Invercargill",898
"Rosedale",-41.068317281789,171.88027427936,-36.742,174.739,-46.3946,168.362,"Invercargill",901
"Seaward Bush",-46.430500030518,168.41625213623,-46.4118,168.424,-46.4426,168.41,"Invercargill",939
"Strathern",-46.429260412852,168.37174956004,-46.4224,168.385,-46.439,168.357,"Invercargill",990
"Tisbury",-46.441876631517,168.38369046725,-46.4323,168.394,-46.4545,168.372,"Invercargill",1080
"Turnbull Thomson",-46.415999412537,168.36624526978,-46.4086,168.372,-46.4299,168.361,"Invercargill",1103
"Waihopai",-46.388699849447,168.39666748047,-46.3864,168.405,-46.3904,168.389,"Invercargill",1128
"Waikiwi",-46.376067368881,168.35041211999,-46.368,168.379,-46.3946,168.299,"Invercargill",1137
"Windsor",-46.39714084972,168.36904283003,-46.3911,168.374,-46.401,168.362,"Invercargill",1241
"Woodend",-43.457675933838,172.47991246762,-43.3107,172.687,-46.4557,168.388,"Invercargill",1248
"Camside",-43.371424674988,172.68099975586,-43.3645,172.691,-43.3803,172.66,"Kaiapoi",142
"Kairaki Beach",-43.384201049805,172.70300292969,-43.3842,172.703,-43.3842,172.703,"Kaiapoi",432
"Pines Beach",-43.376869495098,172.70161437988,-43.3736,172.704,-43.3803,172.685,"Kaiapoi",805
"Kaikoura",-42.407563279315,173.68653497463,-42.384,173.709,-42.4207,173.665,"Kaikoura",428
"Kaikoura Flat",-42.371650695801,173.66799926758,-42.3642,173.677,-42.3791,173.659,"Kaikoura",429
"Kaikoura Peninsula",-42.420700073242,173.70899963379,-42.4207,173.709,-42.4207,173.709,"Kaikoura",430
"South Bay",-42.421789932251,173.68240356445,-42.418,173.684,-42.4253,173.679,"Kaikoura",956
"Awakino Point",-35.921398162842,173.89599609375,-35.9214,173.896,-35.9214,173.896,"Kaipara",52
"Dargaville",-35.938056139879,173.86719674124,-35.91,173.887,-35.984,173.802,"Kaipara",205
"Mangawhai",-36.122338294983,174.57437705994,-36.108,174.58,-36.1279,174.569,"Kaipara",538
"Maungaturoto",-36.225642885481,174.49035644531,-36.084,176.193,-37.7293,174.349,"Kaipara",584
"Ruawai",-36.135233561198,174.02166748047,-36.1315,174.025,-36.1374,174.019,"Kaipara",920
"Turiwiri",-35.953100204468,173.88750457764,-35.952,173.893,-35.9542,173.882,"Kaipara",1102
"Ohau",-44.252171652658,169.99964359828,-44.1762,170.32,-44.3095,169.824,"Kapiti Coast",696
"Otaki",-40.757122523348,175.1485920221,-40.7253,175.186,-40.7787,175.121,"Kapiti Coast",737
"Paekakariki",-40.984162789804,174.95637003581,-40.9759,174.963,-41.0477,174.934,"Kapiti Coast",758
"Paraparaumu",-40.908148466651,175.00503745008,-40.8893,175.024,-40.9621,174.991,"Kapiti Coast",780
"Waikanae",-40.873785569933,175.06438886854,-40.8632,175.081,-40.8996,175.041,"Kapiti Coast",1131
"Moerewa",-35.388082095555,174.01710837228,-35.3678,174.039,-35.3994,174.002,"Kawakawa",610
"Kawerau",-38.090058490483,176.69745335434,-38.0711,176.717,-38.111,176.658,"Kawerau",452
"Waitarere Beach",-40.551791191101,175.20075035095,-40.5404,175.23,-40.5604,175.196,"Levin",1169
"Alicetown",-41.217224121094,174.8892791748,-41.2124,174.898,-41.2242,174.871,"Lower Hutt",15
"Avalon",-41.193189260122,174.94367692277,-41.1831,174.954,-41.2027,174.933,"Lower Hutt",43
"Belmont",-39.067396581173,174.85692214966,-36.8033,174.938,-41.1969,174.78,"Lower Hutt",77
"Boulcott",-41.200737953186,174.92318820953,-41.1915,174.935,-41.2029,174.914,"Lower Hutt",105
"Days Bay",-41.278870773315,174.90859985352,-41.2601,174.911,-41.2837,174.905,"Lower Hutt",206
"Eastbourne",-41.291145642598,174.89849917094,-41.2601,174.911,-41.3001,174.893,"Lower Hutt",228
"Epuni",-41.202840314593,174.93031485421,-41.1957,174.939,-41.2108,174.915,"Lower Hutt",245
"Gracefield",-41.238639831543,174.91439819336,-41.235,174.917,-41.2416,174.911,"Lower Hutt",308
"Harbour View",-41.20261492048,174.89928327288,-41.1996,174.903,-41.2041,174.896,"Lower Hutt",341
"Haywards",-41.148313045502,174.97525215149,-41.1194,174.982,-41.1562,174.947,"Lower Hutt",358
"Kelson",-41.178627729416,174.93565750122,-41.1658,174.954,-41.1877,174.928,"Lower Hutt",455
"Korokoro",-41.214511235555,174.87194569906,-41.1894,174.931,-41.223,174.861,"Lower Hutt",482
"Lower Hutt Central",-41.211136288113,174.90830073281,-41.2007,174.925,-41.2248,174.889,"Lower Hutt",509
"Lowry Bay",-41.256558418274,174.91316604614,-41.2541,174.917,-41.26,174.907,"Lower Hutt",512
"Mahina Bay",-41.270599365234,174.90850448608,-41.2674,174.91,-41.2746,174.906,"Lower Hutt",521
"Manor Park",-41.158411979675,174.97725105286,-41.1563,174.981,-41.1614,174.973,"Lower Hutt",546
"Maungaraki",-41.20628528595,174.88210067749,-41.1766,174.931,-41.2149,174.872,"Lower Hutt",582
"Melling",-41.20615456321,174.89800054377,-41.1766,174.908,-41.2118,174.892,"Lower Hutt",593
"Moera",-41.228000053993,174.90438725398,-41.2225,174.907,-41.2331,174.903,"Lower Hutt",609
"Muritai",-41.301892500657,174.89185039814,-41.2933,174.894,-41.3054,174.888,"Lower Hutt",634
"Naenae",-41.203365677281,174.95319687693,-41.1893,174.967,-41.2143,174.94,"Lower Hutt",638
"Normandale",-41.199099907508,174.89038672814,-41.1766,174.9,-41.2061,174.886,"Lower Hutt",671
"Petone",-41.22469303343,174.88352881538,-41.2157,174.898,-41.2337,174.867,"Lower Hutt",797
"Point Howard",-41.254717508952,174.9075012207,-41.2511,174.91,-41.2694,174.904,"Lower Hutt",816
"Seaview",-43.424664424016,172.36964103503,-41.2267,174.936,-44.4042,171.237,"Lower Hutt",936
"Stokes Valley",-41.173411821064,174.9831579108,-41.1519,174.996,-41.1939,174.973,"Lower Hutt",987
"Sunshine Bay",-44.728708267212,169.15083440145,-41.2694,174.908,-45.0456,168.623,"Lower Hutt",998
"Taita",-41.179776778588,174.95761489868,-41.1643,174.975,-41.1964,174.94,"Lower Hutt",1007
"Tirohanga",-41.198388629489,174.90450032552,-41.1959,174.912,-41.2047,174.898,"Lower Hutt",1079
"Wainuiomata",-41.255779468461,174.94602683364,-41.232,174.973,-41.3457,174.919,"Lower Hutt",1150
"Waiwhetu",-41.224305616106,174.9167728969,-41.2165,174.925,-41.2335,174.909,"Lower Hutt",1174
"Waterloo",-41.216834605824,174.92376376065,-41.2027,174.938,-41.2221,174.911,"Lower Hutt",1193
"Woburn",-41.223150253296,174.90865020752,-41.2164,174.914,-41.2976,174.895,"Lower Hutt",1246
"York Bay",-41.263540649414,174.91159973145,-41.2625,174.914,-41.2655,174.909,"Lower Hutt",1260
"Cass Bay",-43.605328696115,172.69042750767,-43.6027,172.701,-43.6109,172.673,"Lyttelton",150
"Corsair Bay",-43.606300354004,172.70700073242,-43.6063,172.707,-43.6063,172.707,"Lyttelton",191
"Ben Ohau",-44.264872811057,170.0565476851,-44.2222,170.101,-44.3747,169.992,"Mackenzie",80
"Burkes Pass",-44.194198608398,170.58700561523,-44.1942,170.587,-44.1942,170.587,"Mackenzie",129
"Fairlie",-44.095859136337,170.82510297726,-44.0486,170.901,-44.159,170.674,"Mackenzie",249
"Mount Cook National Park",-43.74816312288,170.10300164474,-43.726,170.14,-43.9623,170.095,"Mackenzie",623
"Tekapo",-44.033653614133,170.45846415675,-43.886,170.674,-44.3895,170.195,"Mackenzie",1055
"Twizel",-44.255664825439,170.09397786458,-44.2222,170.105,-44.2661,170.048,"Mackenzie",1105
"Feilding",-40.218837163782,175.56904232887,-40.1002,175.666,-40.244,175.521,"Manawatu",256
"Sanson",-40.21778178215,175.42481231689,-40.2067,175.456,-40.2214,175.419,"Manawatu",931
"Tangimoana",-40.295578334642,175.24787040379,-40.2841,175.264,-40.3024,175.233,"Manawatu",1020
"Mangawhai Heads",-36.093883691832,174.58686047931,-36.0812,174.596,-36.1121,174.578,"Mangawhai",539
"Auckland Airport",-37.001494169235,174.79018688202,-36.9865,174.796,-37.0119,174.782,"Manukau",41
"Beachlands",-36.883574962616,174.9988339742,-36.8785,175.006,-36.8877,174.985,"Manukau",68
"Botany Downs",-36.909767297598,174.91807732215,-36.9012,174.938,-36.9302,174.91,"Manukau",103
"Bucklands Beach",-36.881075185888,174.90942584767,-36.8585,174.918,-36.8962,174.901,"Manukau",127
"Burswood",-36.922834313434,174.89756509532,-36.9187,174.903,-36.9259,174.892,"Manukau",133
"Clendon Park",-37.028046148795,174.86183194761,-37.0131,174.875,-37.0405,174.856,"Manukau",168
"Clover Park",-36.982926042113,174.89391818112,-36.9603,174.906,-36.9905,174.885,"Manukau",173
"Cockle Bay",-36.89718252515,174.93996804858,-36.8833,174.951,-36.9094,174.926,"Manukau",181
"Dannemora",-36.941526456644,174.91522973912,-36.9157,174.938,-36.9617,174.902,"Manukau",202
"East Tamaki",-36.944750052232,174.89198068472,-36.9283,174.903,-36.9626,174.879,"Manukau",227
"Eastern Beach",-36.874687671661,174.91181278229,-36.8706,174.917,-36.8776,174.909,"Manukau",229
"Farm Cove",-36.895986096612,174.88858663625,-36.8912,174.899,-36.9025,174.88,"Manukau",253
"Favona",-36.954442169707,174.80698304257,-36.9456,174.818,-36.9632,174.796,"Manukau",254
"Golflands",-36.921543164687,174.91537544944,-36.9131,174.927,-36.9289,174.902,"Manukau",303
"Goodwood Heights",-36.993812642199,174.89850957343,-36.9873,174.916,-37.0018,174.89,"Manukau",305
"Half Moon Bay",-36.888551940918,174.89998758952,-36.8798,174.91,-36.9061,174.889,"Manukau",330
"Highland Park",-36.904374940055,174.90967941284,-36.8999,174.916,-36.9135,174.905,"Manukau",375
"Howick",-36.8949406147,174.92414045334,-36.8808,174.935,-36.9078,174.913,"Manukau",399
"Huntington Park",-36.932041168213,174.90550231934,-36.9289,174.91,-36.9348,174.904,"Manukau",404
"Mangere",-36.970857476288,174.79361408162,-36.9535,174.876,-36.996,174.755,"Manukau",540
"Mangere Bridge",-36.947569786748,174.7809749555,-36.9387,174.852,-36.9757,174.764,"Manukau",541
"Mangere East",-36.966244565524,174.82378434401,-36.9533,174.842,-36.9803,174.796,"Manukau",542
"Mangere South",-36.980235338211,174.80276997884,-36.9751,174.833,-36.9988,174.78,"Manukau",543
"Manukau",-36.987868332281,174.87761074159,-36.9773,174.916,-37,174.864,"Manukau",547
"Manurewa",-37.023989446631,174.88565328241,-37.0063,174.911,-37.0392,174.865,"Manukau",549
"Manurewa East",-37.025318872361,174.90728541783,-37.0179,174.928,-37.0304,174.902,"Manukau",551
"Maraetai",-36.880457378569,175.03709484282,-36.8764,175.046,-36.8838,175.027,"Manukau",558
"Ormiston",-36.972696760426,174.90915248705,-36.9583,174.941,-36.9887,174.895,"Manukau",732
"Otara",-36.981014112993,174.92278812293,-36.9487,177.337,-38.0604,174.849,"Manukau",743
"Pakuranga",-36.909162329347,174.88210015009,-36.8974,174.903,-36.9259,174.861,"Manukau",763
"Pakuranga Heights",-36.916066389817,174.88707713592,-36.9079,174.893,-36.9248,174.881,"Manukau",764
"Papatoetoe",-36.978434239404,174.85619955548,-36.9605,174.884,-36.9947,174.827,"Manukau",777
"Randwick Park",-37.023585033417,174.9169506073,-37.0159,174.93,-37.0383,174.911,"Manukau",856
"Shelly Park",-36.907749938965,174.94770050049,-36.905,174.953,-36.9133,174.94,"Manukau",944
"Somerville",-36.913772339516,174.93355316811,-36.9066,174.942,-36.9302,174.92,"Manukau",955
"Takanini",-37.042717524937,174.92812401908,-37.0284,174.952,-37.055,174.914,"Manukau",1010
"The Gardens",-37.006064278739,174.90979897635,-36.9858,174.925,-37.0171,174.895,"Manukau",1062
"Wairere",-36.431058995864,174.80952722886,-35.3753,174.946,-37.0179,174.59,"Manukau",1163
"Wattle Downs",-37.046182155609,174.88846533639,-37.0346,174.9,-37.056,174.876,"Manukau",1196
"Weymouth",-37.0415258071,174.86910615809,-37.0308,174.889,-37.0524,174.859,"Manukau",1223
"Wiri",-37.0034498068,174.8717120244,-36.9922,174.898,-37.0226,174.818,"Manukau",1243
"Ruby Bay",-41.229549407959,173.08170013428,-41.2104,173.091,-41.2385,173.073,"Mapua",921
"Havelock",-41.281995773315,173.76721000671,-41.2754,173.77,-41.2908,173.761,"Marlborough",352
"Hawkesbury",-41.543399810791,173.81199645996,-41.5434,173.812,-41.5434,173.812,"Marlborough",356
"Picton",-41.29209428675,174.00703908883,-41.2788,174.026,-41.3016,173.993,"Marlborough",800
"Seddon",-41.670426442073,174.07477100079,-41.655,174.116,-41.6746,174.066,"Marlborough",940
"Taylor Pass",-41.576000213623,173.94799804688,-41.576,173.948,-41.576,173.948,"Marlborough",1032
"Homebush",-41.000525474548,175.66324996948,-40.9686,175.677,-41.0853,175.644,"Masterton",390
"Lansdowne",-40.940168380737,175.67614859122,-40.9287,175.691,-40.9575,175.662,"Masterton",492
"Masterton",-40.95044066414,175.65338861375,-40.9231,175.673,-40.964,175.588,"Masterton",571
"Solway",-40.960261935279,175.63765171596,-40.95,175.667,-40.9674,175.613,"Masterton",953
"Te Ore Ore",-40.925199508667,175.7379989624,-40.9137,175.785,-40.9367,175.691,"Masterton",1050
"Ahuriri",-39.482205179003,176.89972220527,-39.4785,176.913,-39.4889,176.89,"Napier",7
"Anderson Park",-46.356399536133,168.3509979248,-46.3564,168.351,-46.3564,168.351,"Napier",19
"Awatoto",-39.539630126953,176.91600341797,-39.5265,176.919,-39.5478,176.907,"Napier",57
"Bay View",-39.427699706134,176.86796883976,-39.4055,176.881,-39.4577,176.846,"Napier",65
"Bluff Hill",-39.484454675154,176.91375004161,-39.4779,176.919,-39.4961,176.905,"Napier",101
"Greenmeadows",-39.523255497576,176.857421875,-39.5109,176.877,-39.5383,176.847,"Napier",318
"Hospital Hill",-39.489414532979,176.90237490336,-39.4828,176.91,-39.4941,176.894,"Napier",397
"Jervoistown",-39.536849339803,176.86616770426,-39.5328,176.868,-39.5435,176.863,"Napier",420
"Maraenui",-39.51591166328,176.90358823888,-39.5043,176.908,-39.5213,176.897,"Napier",557
"Marewa",-39.503546781318,176.90139522109,-39.4889,176.913,-39.5148,176.883,"Napier",561
"Meeanee",-39.53812456131,176.88650035858,-39.5239,176.912,-39.5492,176.868,"Napier",592
"Napier South",-39.496298492932,176.91283729428,-39.4848,176.919,-39.5138,176.902,"Napier",640
"Onekawa",-39.512634141105,176.89214488438,-39.5027,176.898,-39.5199,176.884,"Napier",713
"Onekawa Industrial",-39.502166929699,176.87995402018,-39.4969,176.886,-39.5083,176.873,"Napier",714
"Pandora",-39.489549636841,176.8878326416,-39.486,176.89,-39.4932,176.885,"Napier",768
"Pirimai",-39.516191843394,176.88262155894,-39.5073,176.889,-39.5239,176.868,"Napier",808
"Poraiti",-39.502075195312,176.86524581909,-39.4957,176.872,-39.5071,176.857,"Napier",821
"Tamatea",-39.511650085449,176.86724965713,-39.4969,176.874,-39.5197,176.857,"Napier",1017
"Taradale",-39.537007127489,176.84731265477,-39.523,176.869,-39.5541,176.81,"Napier",1023
"Te Awa",-39.518316904704,176.91316731771,-39.5101,176.917,-39.5272,176.91,"Napier",1039
"Westshore",-39.474745837125,176.87463725697,-39.4541,176.893,-39.486,176.836,"Napier",1221
"Annesbrook",-41.296405390689,173.2399460642,-41.291,173.263,-41.308,173.221,"Nelson",21
"Atawhai",-41.247692666403,173.31509846013,-41.2363,173.327,-41.2622,173.3,"Nelson",38
"Beachville",-41.268012523651,173.27499771118,-41.2667,173.277,-41.2695,173.273,"Nelson",69
"Britannia Heights",-41.281205919054,173.25877973768,-41.269,173.27,-41.2939,173.251,"Nelson",113
"Enner Glynn",-41.307209378197,173.25142706008,-41.3033,173.259,-41.3198,173.235,"Nelson",243
"Hope",-41.352579879761,173.15989990234,-41.3245,173.178,-41.3644,173.143,"Nelson",392
"Maitai",-41.276806894938,173.30226745605,-41.2723,173.331,-41.2855,173.293,"Nelson",528
"Marybank",-41.093599821392,173.50484346089,-39.9366,175.063,-41.2461,173.315,"Nelson",568
"Moana",-41.279974937439,173.25387382507,-41.2756,173.258,-41.2862,173.248,"Nelson",608
"Monaco",-41.304800033569,173.21566772461,-41.3035,173.223,-41.3062,173.207,"Nelson",612
"Nelson Airport",-41.297200775146,173.22879943848,-41.296,173.23,-41.2984,173.228,"Nelson",644
"Nelson Central",-41.274615143285,173.28612055923,-41.2611,173.3,-41.2806,173.27,"Nelson",645
"Nelson South",-41.2840740769,173.27624116121,-41.2748,173.289,-41.298,173.263,"Nelson",646
"Port Nelson",-41.262059155632,173.2782942828,-41.2572,173.294,-41.2653,173.272,"Nelson",828
"Stepheyville",-41.267541324391,173.2687665154,-41.2646,173.276,-41.2708,173.265,"Nelson",983
"Stoke",-41.296486496925,173.24110913277,-37.9022,175.48,-41.328,173.21,"Nelson",986
"Tahunanui",-41.287379433127,173.24455799776,-41.2798,173.252,-41.294,173.235,"Nelson",1002
"The Brook",-41.290328216553,173.29260131836,-41.2806,173.3,-41.305,173.289,"Nelson",1061
"The Wood",-41.267430577959,173.29126875741,-41.2461,173.315,-41.2753,173.283,"Nelson",1064
"Toi Toi",-41.283487161001,173.26612472534,-41.2749,173.276,-41.2935,173.26,"Nelson",1083
"Wakapuaka",-41.206401824951,173.36199951172,-41.2064,173.362,-41.2064,173.362,"Nelson",1175
"Wakatu",-41.30007825579,173.24871390206,-41.295,173.258,-41.308,173.221,"Nelson",1177
"Washington Valley",-41.274552797016,173.26889760871,-41.2714,173.276,-41.2809,173.262,"Nelson",1192
"Bell Block",-39.029624091254,174.14642644812,-39.0183,174.158,-39.0376,174.138,"New Plymouth",74
"Blagdon",-39.069605659036,174.04335381003,-39.0627,174.058,-39.0763,174.039,"New Plymouth",94
"Ferndale",-39.085609817505,174.06409912109,-39.084,174.067,-39.0882,174.061,"New Plymouth",258
"Frankleigh Park",-39.086200032915,174.0685370309,-39.0751,174.078,-39.1138,174.059,"New Plymouth",274
"Glen Avon",-39.057599258423,174.11039733887,-39.0529,174.119,-39.0753,174.107,"New Plymouth",287
"Highlands Park",-39.081505669488,174.10222286648,-39.0726,174.11,-39.0906,174.099,"New Plymouth",376
"Hurdon",-39.088222927517,174.04999966092,-39.0849,174.052,-39.0956,174.049,"New Plymouth",406
"Inglewood",-39.158720228407,174.20139838325,-39.1515,174.247,-39.2405,174.19,"New Plymouth",410
"Lower Vogeltown",-39.069774945577,174.07583236694,-39.0654,174.078,-39.074,174.073,"New Plymouth",511
"Lynmouth",-39.065906300264,174.05405829935,-39.0594,174.06,-39.0703,174.049,"New Plymouth",517
"Marfell",-39.07435753232,174.04747663225,-39.0627,174.058,-39.0791,174.043,"New Plymouth",562
"Merrilands",-39.068654219309,174.10189565023,-39.0594,174.108,-39.14,174.083,"New Plymouth",598
"Moturoa",-39.063233971596,174.0410323143,-39.0594,174.06,-39.0697,174.02,"New Plymouth",621
"New Plymouth Central",-39.058476845423,174.07463486989,-39.0506,174.096,-39.0734,174.057,"New Plymouth",652
"Oakura",-39.11759964625,173.95062192281,-39.1131,173.959,-39.123,173.94,"New Plymouth",685
"Okato",-39.182091712952,173.89241663615,-39.1209,173.954,-39.2142,173.872,"New Plymouth",702
"Port Taranaki",-39.061119842529,174.0342010498,-39.0572,174.045,-39.0697,174.02,"New Plymouth",829
"Spotswood",-39.070618138169,174.02899909742,-39.065,174.044,-39.0773,174.02,"New Plymouth",963
"Strandon",-39.053694370815,174.09494192941,-39.0483,174.101,-39.0599,174.083,"New Plymouth",988
"Upper Vogeltown",-39.084939956665,174.08279724121,-39.0824,174.091,-39.0881,174.078,"New Plymouth",1112
"Vogeltown",-39.957624493223,174.35160550204,-39.0589,174.775,-41.3157,174.074,"New Plymouth",1116
"Waitara",-38.997561902416,174.23706163679,-38.9868,174.314,-39.0086,174.216,"New Plymouth",1167
"Waiwhakaiho",-39.047315157377,174.11661353478,-39.0423,174.124,-39.0515,174.108,"New Plymouth",1173
"Welbourn",-39.070463481702,174.09184224982,-39.0569,174.1,-39.0791,174.084,"New Plymouth",1201
"Westown",-39.075686782154,174.05841747682,-39.062,174.071,-39.0856,174.042,"New Plymouth",1219
"Whalers Gate",-39.085031738281,174.03711914063,-39.0787,174.046,-39.1107,174.032,"New Plymouth",1226
"Albany",-36.738093773524,174.70701669057,-36.7082,174.734,-36.7629,174.678,"North Shore",11
"Bayswater",-36.812266349792,174.78133265177,-36.808,174.789,-36.8178,174.769,"North Shore",66
"Beach Haven",-36.792333313913,174.68948549213,-36.7843,174.696,-36.8011,174.682,"North Shore",67
"Birkdale",-36.79972186987,174.70007169419,-36.7869,174.716,-36.8122,174.688,"North Shore",87
"Birkenhead",-36.811149190267,174.72498616536,-36.7992,174.738,-36.8209,174.705,"North Shore",88
"Browns Bay",-36.71608497001,174.73318893845,-36.697,174.75,-36.7283,174.716,"North Shore",125
"Campbells Bay",-36.748192420373,174.75930668758,-36.7434,174.768,-36.7598,174.755,"North Shore",141
"Castor Bay",-36.756209564209,174.76025009155,-36.7292,174.765,-36.7651,174.751,"North Shore",152
"Chatswood",-36.816899980818,174.7137625558,-36.8129,174.72,-36.822,174.709,"North Shore",158
"Devonport",-36.825444862024,174.79970174761,-36.8,174.81,-36.8316,174.788,"North Shore",210
"Forrest Hill",-36.764190600469,174.74771147508,-36.7531,174.755,-36.7763,174.741,"North Shore",271
"Glenfield",-36.777112512028,174.71775021273,-36.7548,174.742,-36.7936,174.7,"North Shore",293
"Greenhithe",-36.771901547909,174.67948436737,-36.7619,174.708,-36.7832,174.666,"North Shore",316
"Hauraki",-36.79950650533,174.77756703695,-36.7941,174.784,-36.8053,174.771,"North Shore",351
"Mairangi Bay",-36.740779583271,174.74589616824,-36.7346,174.756,-36.7483,174.739,"North Shore",525
"Marlborough",-36.78340959549,174.72846889496,-36.7785,174.74,-36.7901,174.723,"North Shore",563
"Meadowood",-36.755010144464,174.72186174064,-36.7519,174.729,-36.759,174.714,"North Shore",590
"Milford",-36.769549874698,174.75969179939,-36.697,174.774,-36.7808,174.716,"North Shore",602
"Murrays Bay",-36.731313028643,174.74577429987,-36.7242,174.756,-36.7356,174.733,"North Shore",635
"Narrow Neck",-36.814991912842,174.79643920898,-36.8111,174.805,-36.821,174.789,"North Shore",641
"Northcross",-36.705577143916,174.72914801704,-36.697,174.738,-36.7114,174.716,"North Shore",679
"Paremoremo",-36.747196592134,174.66303437332,-36.7236,174.692,-36.7691,174.645,"North Shore",784
"Pinehill",-36.728274822235,174.72131156921,-36.7257,174.726,-36.7309,174.717,"North Shore",804
"Rothesay Bay",-36.724857057844,174.74553625924,-36.7185,174.754,-36.7292,174.737,"North Shore",910
"Stanley Point",-36.826564243862,174.78535570417,-36.8245,174.791,-36.8288,174.775,"North Shore",980
"Sunnynook",-36.754058099562,174.73899988974,-36.7491,174.746,-36.7598,174.732,"North Shore",995
"Sunset North",-36.74978685379,174.73399925232,-36.7449,174.739,-36.7548,174.728,"North Shore",997
"Takapuna",-36.787775960462,174.76898272284,-36.7737,174.778,-36.7974,174.753,"North Shore",1013
"Torbay",-36.697661186667,174.74031749052,-36.6906,174.759,-36.7082,174.709,"North Shore",1090
"Totaravale",-36.759587904986,174.72941140568,-36.7564,174.736,-36.7621,174.725,"North Shore",1094
"Waiake",-36.70591952006,174.74376831055,-36.7024,174.752,-36.7146,174.735,"North Shore",1120
"Wairau Valley",-36.772343803855,174.73461689669,-36.7588,174.745,-36.7838,174.728,"North Shore",1162
"Holmes Hill",-45.10360824585,170.94600097656,-45.0962,170.956,-45.1157,170.924,"Oamaru",389
"Oamaru Central",-45.095684127808,170.96569915771,-45.0837,170.976,-45.1053,170.952,"Oamaru",687
"Oamaru North",-45.076880255411,170.98401162791,-45.0643,171.008,-45.0881,170.97,"Oamaru",688
"South Hill",-45.108646197197,170.96282059107,-45.0802,170.975,-45.1429,170.934,"Oamaru",958
"Waiareka Junction",-45.096049308777,170.93724822998,-45.0951,170.944,-45.0977,170.933,"Oamaru",1122
"Weston",-45.077675183614,170.91912651062,-45.0078,170.945,-45.0962,170.827,"Oamaru",1218
"Opotiki",-38.014312987632,177.28393717015,-37.9955,177.3,-38.1921,177.265,"Opotiki",725
"Waiotahi",-38.018349170685,177.25425338745,-38.0159,177.266,-38.0216,177.189,"Opotiki",1153
"Hatfields Beach",-36.569927562367,174.68981517445,-36.5662,174.693,-36.5732,174.686,"Orewa",349
"Otaki Beach",-40.742582433364,175.1187061983,-40.7329,175.132,-40.7559,175.108,"Otaki",738
"Otorohanga",-38.184503458314,175.21515358101,-38.1397,175.292,-38.2297,175.203,"Otorohanga",748
"Ashhurst",-40.288313375937,175.75543336611,-40.248,175.805,-40.3066,175.682,"Palmerston North",37
"Cloverlea",-40.343816280365,175.58679072062,-40.3294,175.603,-40.3502,175.56,"Palmerston North",174
"Fitzherbert",-40.385293899044,175.63209681357,-40.3771,175.649,-40.429,175.571,"Palmerston North",263
"Highbury",-40.456368387962,175.49562166175,-40.343,175.602,-41.2952,174.747,"Palmerston North",371
"Hokowhitu",-40.362054945112,175.63049673819,-40.3498,175.645,-40.3735,175.606,"Palmerston North",388
"Kelvin Grove",-40.406149833433,175.57801597349,-40.2997,175.667,-41.2968,174.775,"Palmerston North",457
"Linton Military Camp",-40.408587646484,175.5862247467,-40.3977,175.595,-40.4169,175.574,"Palmerston North",503
"Milson",-40.329061564277,175.60944119622,-40.2996,175.632,-40.3455,175.589,"Palmerston North",603
"Palmerston North",-40.354803743616,175.60889347043,-40.3409,175.623,-40.3715,175.595,"Palmerston North",767
"Takaro",-40.354546931752,175.59159636916,-40.3294,175.62,-40.3701,175.56,"Palmerston North",1014
"Terrace End",-40.383328683036,175.64022870745,-40.3444,175.667,-40.9401,175.63,"Palmerston North",1059
"West End",-42.102401733398,173.71961975098,-40.3447,175.62,-44.4038,171.224,"Palmerston North",1206
"Alfriston",-37.022599538167,174.93633524577,-37.015,174.944,-37.0284,174.932,"Papakura",13
"Conifer Grove",-37.046082697417,174.91267093859,-37.0373,174.924,-37.0525,174.906,"Papakura",186
"Drury",-37.101138856676,174.94983503554,-37.0921,174.965,-37.1075,174.938,"Papakura",217
"Opaheke",-37.077044592963,174.94663959079,-37.0717,174.958,-37.0887,174.94,"Papakura",721
"Pahurehure",-37.067703641694,174.93199999579,-37.0625,174.941,-37.0741,174.926,"Papakura",761
"Papakura",-37.060011017189,174.95255571001,-37.0383,175.033,-37.084,174.929,"Papakura",771
"Red Hill",-37.068386604046,174.97169073697,-37.0629,174.979,-37.0727,174.964,"Papakura",869
"Rosehill",-37.080324082148,174.93723769415,-37.0758,174.941,-37.0852,174.931,"Papakura",903
"Maungakotukutuku",-40.962100982666,175.0240020752,-40.9621,175.024,-40.9621,175.024,"Paraparaumu",580
"Nikau Valley",-40.914360809326,175.02940063477,-40.9126,175.033,-40.9168,175.023,"Paraparaumu",667
"Otaihanga",-40.884018659592,175.02243709564,-40.8784,175.038,-40.8889,175.014,"Paraparaumu",735
"Paraparaumu Beach",-40.88980015046,174.99255945048,-40.8769,175.006,-40.9045,174.978,"Paraparaumu",781
"Raumati Beach",-40.917722735489,174.98584171764,-40.905,175,-40.9294,174.978,"Paraparaumu",863
"Raumati South",-40.934035326983,174.981025902,-40.9232,174.991,-40.9444,174.974,"Paraparaumu",864
"Waikawa",-41.274592619676,174.03757594182,-41.2657,174.104,-41.3225,174.026,"Picton",1136
"Aotea",-41.122999191284,174.86612701416,-41.1216,174.868,-41.127,174.865,"Porirua",22
"Ascot Park",-41.120161692301,174.87371317546,-41.1134,174.88,-41.1307,174.87,"Porirua",35
"Camborne",-41.08822517395,174.87489929199,-41.0844,174.895,-41.0909,174.869,"Porirua",138
"Cannons Creek",-41.1389381772,174.86719040644,-41.1307,174.88,-41.1516,174.856,"Porirua",143
"Elsdon",-41.127116775513,174.83283284505,-41.1127,174.84,-41.1435,174.825,"Porirua",240
"Mana",-41.09422492981,174.87258402507,-41.0899,174.879,-41.1012,174.869,"Porirua",532
"Papakowhai",-41.115668547781,174.86389682167,-41.1089,174.871,-41.1341,174.843,"Porirua",770
"Paremata",-41.106706282672,174.87441119026,-41.1014,174.893,-41.1104,174.868,"Porirua",783
"Plimmerton",-41.076469127948,174.86407705454,-41.061,174.871,-41.0873,174.853,"Porirua",811
"Porirua",-41.138798183865,174.83751848009,-41.1212,174.845,-41.152,174.816,"Porirua",823
"Porirua East",-41.138850106133,174.85300021701,-41.1351,174.857,-41.1427,174.846,"Porirua",824
"Pukerua Bay",-41.035787755793,174.88806013627,-41.0294,174.897,-41.0567,174.868,"Porirua",838
"Ranui Heights",-41.144587755203,174.84818935394,-41.1392,174.853,-41.1488,174.844,"Porirua",860
"Titahi Bay",-41.107872906853,174.83949441349,-41.0955,174.852,-41.1186,174.824,"Porirua",1081
"Waitangirua",-41.126831173897,174.88125085831,-41.1171,174.886,-41.1365,174.877,"Porirua",1166
"Whitby",-41.112934235604,174.89510813067,-41.1057,174.916,-41.1471,174.878,"Porirua",1234
"Arrowtown",-44.944398962933,168.83617323723,-44.9378,168.845,-44.9555,168.819,"Queenstown",33
"Fernhill",-45.039800047874,168.63221931458,-45.0347,168.639,-45.0436,168.625,"Queenstown",259
"Kelvin Heights",-45.040582905645,168.69573841924,-45.0288,168.723,-45.047,168.68,"Queenstown",458
"Queenstown",-45.029347452624,168.66892242432,-45.0019,168.698,-45.038,168.631,"Queenstown",848
"Wanaka",-44.690817769368,169.13113380715,-44.5847,169.21,-44.8018,168.906,"Queenstown",1184
"Fernside",-43.296537399292,172.5535030365,-43.2895,172.576,-43.3053,172.407,"Rangiora",260
"Bulls",-40.174229907989,175.38312454224,-40.1664,175.395,-40.1809,175.361,"Rangitikei",128
"Hunterville",-39.935357048398,175.56814357213,-39.9041,175.585,-39.9637,175.53,"Rangitikei",402
"Marton",-40.074237624804,175.37978204091,-40.034,175.403,-40.0963,175.294,"Rangitikei",567
"Taihape",-39.676270882289,175.79537677765,-39.6511,175.839,-39.6932,175.758,"Rangitikei",1003
"Riverton North",-46.346488189697,168.02020019531,-46.3375,168.031,-46.3553,168.013,"Riverton",895
"Riverton Rocks",-46.368206944959,168.02148332267,-46.3568,168.032,-46.3807,168.002,"Riverton",896
"Riverton South",-46.356005949133,167.99564496209,-46.35,168.01,-46.3633,167.861,"Riverton",897
"Algies Bay",-36.434254964193,174.74211290148,-36.4307,174.746,-36.4379,174.74,"Rodney",14
"Helensville",-36.678605651855,174.45279976981,-36.6696,174.461,-36.6977,174.445,"Rodney",364
"Kawau Island",-36.436630542462,174.83123075045,-36.43,174.841,-36.4482,174.824,"Rodney",451
"Orewa",-36.586190661262,174.68758814195,-36.5761,174.699,-36.5959,174.672,"Rodney",730
"Parakai",-36.660530471802,174.4345993042,-36.6575,174.438,-36.6631,174.431,"Rodney",779
"Red Beach",-36.60563904047,174.69782757759,-36.5807,174.715,-36.6136,174.681,"Rodney",868
"Riverhead",-36.757935932704,174.59371403285,-36.743,174.598,-36.7657,174.589,"Rodney",888
"Waimauku",-36.770289170115,174.4917883622,-36.7557,174.503,-36.7964,174.471,"Rodney",1146
"Warkworth",-36.400742353019,174.66132315943,-36.3692,174.694,-36.4255,174.605,"Rodney",1189
"Wellsford",-36.313300034095,174.52655187146,-36.2774,174.713,-36.8973,174.478,"Rodney",1204
"Fairy Springs",-38.114636866252,176.22876637777,-38.088,176.234,-38.1235,176.214,"Rotorua",252
"Fordlands",-38.14510004144,176.2248430754,-38.1396,176.23,-38.1516,176.221,"Rotorua",269
"Glenholme",-38.151704603626,176.25074202015,-38.1433,176.264,-38.1597,176.239,"Rotorua",295
"Kawaha Point",-38.108065032959,176.237449646,-38.1039,176.243,-38.1182,176.232,"Rotorua",449
"Koutu",-38.120848083496,176.23800048828,-38.1149,176.242,-38.1293,176.232,"Rotorua",484
"Lynmore",-38.148327615526,176.28952746921,-38.141,176.297,-38.1564,176.279,"Rotorua",516
"Mamaku",-38.097458203634,176.07720692952,-38.0811,176.136,-38.1713,176.045,"Rotorua",531
"Mangakakahi",-38.133116404215,176.22511872791,-38.127,176.242,-38.1461,176.213,"Rotorua",534
"Ngapuna",-38.145857402257,176.27378518241,-38.1397,176.282,-38.1491,176.269,"Rotorua",659
"Ngongotaha",-38.079676994911,176.2110387362,-38.0651,176.224,-38.0942,176.195,"Rotorua",663
"Ngongotaha Valley",-38.100101470947,176.16700744629,-38.1001,176.167,-38.1001,176.167,"Rotorua",664
"Owhata",-38.131548781144,176.29756525943,-38.1162,176.319,-38.1478,176.282,"Rotorua",755
"Pukehangi",-38.137189337548,176.20670172509,-38.1309,176.216,-38.1485,176.195,"Rotorua",836
"Rotorua",-38.133304868426,176.24766613188,-38.1264,176.258,-38.1469,176.24,"Rotorua",912
"Selwyn Heights",-38.116933186849,176.22083155314,-38.114,176.224,-38.1197,176.218,"Rotorua",941
"Springfield",-38.305930455526,176.1111102634,-38.1461,176.24,-43.3616,171.923,"Rotorua",966
"Tihoitonga",-38.172161579132,176.24075126648,-38.1689,176.244,-38.1743,176.239,"Rotorua",1068
"Victoria",-38.143295469738,176.24604724702,-38.1408,176.255,-38.1469,176.233,"Rotorua",1115
"West Brook",-38.149966345893,176.21802164714,-38.1405,176.231,-38.1602,176.207,"Rotorua",1205
"Whakarewarewa",-38.159680175781,176.25939941406,-38.1469,176.274,-38.1678,176.249,"Rotorua",1224
"Ohakune",-39.411682128906,175.40651702881,-39.3544,175.472,-39.4248,175.342,"Ruapehu",694
"Ohura",-38.844296264648,174.97671936035,-38.8336,175.019,-38.8694,174.883,"Ruapehu",700
"Raetihi",-39.430108388265,175.27466583252,-39.3976,175.342,-39.4585,175.153,"Ruapehu",851
"Taumarunui",-38.880725581472,175.26314637719,-38.7829,175.331,-38.9618,175.103,"Ruapehu",1024
"Waiouru",-39.471094095482,175.67722795594,-39.4608,175.71,-39.4802,175.665,"Ruapehu",1155
"Waiouru Military Area",-39.445201873779,175.66700744629,-39.4452,175.667,-39.4452,175.667,"Ruapehu",1156
"Burnham",-43.615446602426,172.30231717738,-43.6103,172.323,-43.6275,172.28,"Selwyn",130
"Darfield",-43.488190423875,172.10518864223,-43.4449,172.12,-43.5438,172.057,"Selwyn",204
"Leeston",-43.761488547692,172.29523115892,-43.7261,172.314,-43.7796,172.239,"Selwyn",496
"Lincoln",-43.641255027369,172.48452718634,-43.6244,172.496,-43.6479,172.462,"Selwyn",501
"Prebbleton",-43.587082006992,172.51233301407,-43.5699,172.557,-43.6317,172.488,"Selwyn",832
"Rolleston",-43.600334525108,172.38012504578,-43.5911,172.414,-43.6537,172.342,"Selwyn",899
"Sheffield",-43.396466754732,172.0276663644,-43.3611,172.106,-43.4449,171.986,"Selwyn",943
"Southbridge",-43.809604167938,172.25008265177,-43.7874,172.265,-43.8176,172.222,"Selwyn",960
"West Melton",-43.535301208496,172.37800598145,-43.5353,172.378,-43.5353,172.378,"Selwyn",1209
"Eltham",-39.42937596639,174.29785810198,-39.4177,174.311,-39.4411,174.286,"South Taranaki",241
"Hawera",-39.586271997225,174.27981360484,-39.5624,174.307,-39.6064,174.253,"South Taranaki",355
"Manaia",-39.551482256721,174.12500089758,-39.5466,174.133,-39.566,174.117,"South Taranaki",533
"Opunake",-39.451843643188,173.85873209635,-39.4023,173.919,-39.4583,173.846,"South Taranaki",727
"Patea",-39.754511746493,174.47609190507,-39.7351,174.516,-39.7695,174.453,"South Taranaki",792
"Arapuni",-38.071399688721,175.64907602163,-38.0699,175.651,-38.0744,175.647,"South Waikato",27
"Lichfield",-38.100999832153,175.80249786377,-38.0953,175.819,-38.1067,175.786,"South Waikato",500
"North Putaruru",-38.011501312256,175.77350616455,-37.9985,175.794,-38.0245,175.753,"South Waikato",676
"Putaruru",-38.049305160324,175.77942806095,-38.0368,175.791,-38.0594,175.764,"South Waikato",842
"Tirau",-37.9781698144,175.75852103855,-37.9731,175.762,-37.9817,175.753,"South Waikato",1078
"Tokoroa",-38.22519298836,175.86399947272,-38.2015,175.902,-38.2447,175.85,"South Waikato",1087
"Featherston",-41.114969918894,175.32683651946,-41.0814,175.364,-41.133,175.316,"South Wairarapa",255
"Greytown",-41.08114566225,175.4565448183,-41.0489,175.468,-41.0921,175.439,"South Wairarapa",325
"Martinborough",-41.219196973528,175.45794285366,-41.2091,175.473,-41.2286,175.446,"South Wairarapa",566
"Birchwood",-45.959275245667,167.87824630737,-45.9466,167.95,-45.996,167.841,"Southland",86
"Edendale",-46.314220905304,168.78212547302,-46.3031,168.818,-46.3217,168.656,"Southland",232
"Lumsden",-45.742874839089,168.44554484974,-45.7328,168.583,-45.8344,168.406,"Southland",513
"Nightcaps",-45.974229335785,168.02733484904,-45.9634,168.035,-46.0559,168.013,"Southland",665
"Ocean Beach",-44.276100158691,171.21399943034,-39.7302,176.993,-46.5869,168.302,"Southland",689
"Ohai",-45.932337284088,167.96193695068,-45.9204,167.991,-45.9418,167.949,"Southland",692
"Otautau",-46.1413230896,167.9970006307,-46.0912,168.053,-46.1572,167.972,"Southland",744
"Raes Junction",-45.776400429862,169.48243277414,-45.7065,169.585,-45.8468,169.436,"Southland",850
"Stewart Island",-46.896646639196,168.12690399914,-46.868,168.149,-46.9057,168.086,"Southland",984
"Te Anau",-45.414154679808,167.72056203346,-45.4038,167.738,-45.4223,167.708,"Southland",1034
"Tuatapere",-46.127750237783,167.68970743815,-46.078,167.857,-46.1574,167.635,"Southland",1100
"Wallacetown",-46.334382596223,168.28669407057,-46.3081,168.298,-46.3501,168.247,"Southland",1180
"Winton",-46.14234652886,168.3231347891,-46.1325,168.331,-46.1543,168.302,"Southland",1242
"Wyndham",-46.327881041027,168.85223824637,-46.2647,168.966,-46.364,168.84,"Southland",1257
"Croydon",-46.004501342773,168.83099365234,-46.0045,168.831,-46.0045,168.831,"Stratford",197
"Stratford",-39.337209296949,174.28239394679,-39.2405,174.307,-39.3532,174.247,"Stratford",989
"Dannevirke",-40.205354486854,176.10386331799,-40.1874,176.232,-40.2906,176.085,"Tararua",203
"Eketahuna",-40.6472542899,175.70311453683,-40.6374,175.779,-40.6662,175.688,"Tararua",235
"Pahiatua",-40.453853900616,175.83798100398,-40.4386,175.849,-40.4635,175.812,"Tararua",760
"Woodville",-40.336199876739,175.86609817133,-40.298,175.895,-40.3456,175.853,"Tararua",1254
"Brightwater",-41.375421003862,173.10636208274,-41.3431,173.127,-41.39,173.08,"Tasman",112
"Lower Moutere",-41.174600601196,173.03649902344,-41.1388,173.073,-41.2104,173,"Tasman",510
"Mapua",-41.249936756335,173.09194705361,-41.2104,173.1,-41.2584,173.072,"Tasman",556
"Motueka",-41.115833002493,173.01290893555,-41.0951,173.027,-41.1487,172.979,"Tasman",620
"Murchison",-42.033499823676,172.22944217258,-41.7952,172.346,-45.8685,170.511,"Tasman",633
"Takaka",-40.853844919512,172.81161302136,-40.8338,172.882,-40.8878,172.788,"Tasman",1009
"Wai-iti",-41.423500061035,173.00199890137,-41.4235,173.002,-41.4235,173.002,"Tasman",1129
"Wakefield",-41.406853602483,173.04607763046,-41.3857,173.08,-41.4731,172.992,"Tasman",1178
"Manunui",-38.892500559489,175.32286478678,-38.8847,175.333,-38.91,175.286,"Taumarunui",548
"Acacia Bay",-38.701267923628,176.02946472168,-38.6606,176.042,-38.7124,175.988,"Taupo",3
"Mangakino",-38.37110710144,175.77403368269,-38.3634,175.778,-38.3766,175.769,"Taupo",535
"Nukuhau",-38.678602451231,176.06308448605,-38.6606,176.081,-38.7043,176.033,"Taupo",684
"Taupo",-38.700778533001,176.08766820479,-38.6762,176.108,-38.7334,176.066,"Taupo",1026
"Tokaanu",-38.964698791504,175.76600646973,-38.9647,175.766,-38.9647,175.766,"Taupo",1084
"Turangi",-39.047368955612,175.76464881897,-38.9647,175.846,-43.6428,172.492,"Taupo",1101
"Wairakei",-38.619139862061,176.10359802246,-38.6169,176.107,-38.6214,176.101,"Taupo",1161
"Bellevue",-37.679206371307,176.13162612915,-37.6659,176.143,-37.6898,176.123,"Tauranga",76
"Bethlehem",-37.702174353845,176.1161135644,-37.6804,176.123,-37.7275,176.101,"Tauranga",83
"Brookfield",-37.688069074582,176.13936008551,-37.6796,176.151,-37.6916,176.131,"Tauranga",119
"Gate Pa",-37.716924846172,176.13685941696,-37.7067,176.147,-37.7268,176.126,"Tauranga",282
"Greerton",-37.731765508652,176.13293838501,-37.7243,176.143,-37.7361,176.119,"Tauranga",319
"Hairini",-37.73935032987,176.16232194572,-37.7239,176.173,-37.7547,176.15,"Tauranga",328
"Judea",-37.698640303178,176.13473986341,-37.6796,176.152,-37.7066,176.12,"Tauranga",422
"Kairua",-37.709800720215,176.25399780273,-37.7098,176.254,-37.7098,176.254,"Tauranga",433
"Matapihi",-37.697399139404,176.19400024414,-37.6974,176.194,-37.6974,176.194,"Tauranga",574
"Matua",-37.66621727779,176.1276897562,-37.6607,176.141,-37.6796,176.116,"Tauranga",579
"Maungatapu",-37.717995519223,176.17930404,-37.7105,176.188,-37.723,176.17,"Tauranga",583
"Mt Maunganui",-37.66505170652,176.21123458074,-37.6323,176.242,-37.6869,176.174,"Tauranga",628
"Otumoetai",-37.672948971601,176.14574722505,-37.6625,176.163,-37.6828,176.132,"Tauranga",749
"Papamoa Beach",-37.702942700453,176.28827248157,-37.6777,176.355,-37.7249,176.242,"Tauranga",773
"Poike",-37.734249750773,176.14949798584,-37.7277,176.153,-37.7388,176.145,"Tauranga",812
"Pyes Pa",-37.747027158737,176.12377071381,-37.7367,176.134,-37.8568,176.114,"Tauranga",844
"Tauranga",-37.686786431533,176.16409683228,-37.666,176.179,-37.7099,176.137,"Tauranga",1027
"Tauranga South",-37.706666897505,176.15625586877,-37.6975,176.166,-37.7138,176.137,"Tauranga",1028
"Tauriko",-37.730532964071,176.10333506266,-37.7225,176.11,-37.7359,176.101,"Tauranga",1029
"Welcome Bay",-37.730184577493,176.18971808938,-37.7227,176.203,-37.7494,176.174,"Tauranga",1202
"Kihikihi",-38.037759542465,175.34781122208,-38.0253,175.359,-38.0438,175.334,"Te Awamutu",468
"Denfield",-44.119499206543,171.2799987793,-44.1195,171.28,-44.1195,171.28,"Timaru",209
"Fairview",-44.436599731445,171.19100189209,-44.409,171.223,-44.4642,171.159,"Timaru",250
"Geraldine",-44.093950883398,171.24098090406,-44.0762,171.28,-44.1213,171.112,"Timaru",284
"Gleniti",-44.384292461254,171.19462868019,-44.3757,171.206,-44.3895,171.148,"Timaru",296
"Glenwood",-44.387512054443,171.2093182373,-44.3805,171.222,-44.3916,171.204,"Timaru",302
"Highfield",-44.389694615414,171.22136889006,-44.3845,171.234,-44.4038,171.212,"Timaru",374
"Kingsdown",-44.487490220503,171.2105477073,-44.485,171.214,-44.4922,171.208,"Timaru",471
"Maori Park",-44.386558850606,171.23933410645,-44.3802,171.244,-44.3901,171.222,"Timaru",554
"Marchwiel",-44.378710190455,171.22393798828,-44.3677,171.238,-44.3845,171.201,"Timaru",560
"Oceanview",-44.369099511041,171.23966810438,-44.3652,171.242,-44.3713,171.237,"Timaru",691
"Parkside",-44.404842130599,171.24848544213,-44.3964,171.257,-44.4106,171.237,"Timaru",787
"Pleasant Point",-44.260299771331,171.12972064351,-44.2411,171.192,-44.2962,171.099,"Timaru",810
"Redruth",-44.415671212333,171.24814060756,-44.4106,171.25,-44.4181,171.246,"Timaru",871
"Temuka",-44.239972523281,171.28379785447,-44.1804,171.344,-44.2988,171.227,"Timaru",1058
"Timaru Central",-44.396586443927,171.25024372823,-44.3919,171.257,-44.4047,171.237,"Timaru",1072
"Timaru Port",-44.393108050028,171.25833257039,-44.3853,171.262,-44.3993,171.253,"Timaru",1073
"Totara Valley",-44.250301361084,171.10899353027,-44.2503,171.109,-44.2503,171.109,"Timaru",1093
"Waimataitai",-44.380718937627,171.23918321398,-44.3765,171.247,-44.3865,171.224,"Timaru",1144
"Washdyke",-44.350030326843,171.23760070801,-44.2962,171.271,-44.3677,171.192,"Timaru",1190
"Watlington",-44.406657570287,171.23289489746,-44.4011,171.24,-44.4111,171.226,"Timaru",1195
"Okoroire",-37.955598831177,175.7740020752,-37.9521,175.795,-37.9591,175.753,"Tirau",705
"Piarere",-37.93030166626,175.67399597168,-37.9303,175.674,-37.9303,175.674,"Tirau",799
"Birchville",-41.091479949951,175.10459960937,-41.0301,175.12,-41.0983,175.092,"Upper Hutt",85
"Brown Owl",-41.105431318283,175.09806251526,-41.0959,175.118,-41.1123,175.094,"Upper Hutt",124
"Clouston Park",-41.117521286011,175.0918573652,-41.1144,175.125,-41.1261,175.079,"Upper Hutt",172
"Ebdentown",-41.119687513872,175.07212182247,-41.1161,175.082,-41.1252,175.064,"Upper Hutt",230
"Elderslea",-41.121644907984,175.05806916336,-41.1173,175.071,-41.1248,175.04,"Upper Hutt",236
"Heretaunga",-41.141331759366,175.02104603161,-41.1254,175.061,-41.1458,175.002,"Upper Hutt",369
"Kingsley Heights",-41.124530498798,175.08546330379,-41.1224,175.09,-41.1261,175.076,"Upper Hutt",473
"Maidstone",-41.12758026123,175.07099914551,-41.1252,175.076,-41.1295,175.066,"Upper Hutt",524
"Maoribank",-41.110858281453,175.10083643595,-41.1058,175.105,-41.1177,175.099,"Upper Hutt",555
"Pinehaven",-41.157006171442,175.01345086867,-41.1517,175.026,-41.1671,175.007,"Upper Hutt",803
"Riverstone Terraces",-41.113108121432,175.03884535569,-41.0964,175.043,-41.1202,175.032,"Upper Hutt",893
"Silverstream",-41.145697471423,175.0212296706,-41.1376,175.036,-41.1521,174.994,"Upper Hutt",949
"Te Marua",-41.099411858453,175.13010999891,-41.0912,175.143,-41.1146,175.118,"Upper Hutt",1048
"Timberlea",-41.10441866788,175.10772566362,-41.0959,175.118,-41.1067,175.103,"Upper Hutt",1074
"Totara Park",-41.025313126413,175.13563095896,-37.9625,176.975,-41.1144,175.079,"Upper Hutt",1091
"Trentham",-41.130816671583,175.04213884142,-41.1188,175.061,-41.1454,175.027,"Upper Hutt",1096
"Trentham Military Camp",-41.144100613064,175.03877597385,-41.1405,175.051,-41.1469,175.032,"Upper Hutt",1097
"Upper Hutt Central",-41.124100068036,175.06985428754,-41.121,175.075,-41.1277,175.061,"Upper Hutt",1107
"Wallaceville",-41.12915019989,175.0623008728,-41.1259,175.076,-41.1363,175.057,"Upper Hutt",1181
"Omiha",-36.816350301107,175.05974960327,-36.811,175.064,-36.8206,175.055,"Waiheke Island",709
"Oneroa",-36.788215787787,175.02192085668,-36.7743,175.039,-36.8099,175,"Waiheke Island",717
"Onetangi",-36.791647796631,175.0792401123,-36.7863,175.087,-36.7997,175.065,"Waiheke Island",718
"Ostend",-36.790285334868,175.047706604,-36.7793,175.065,-36.802,175.038,"Waiheke Island",733
"Athenree",-37.43214485862,175.95972789418,-37.426,175.966,-37.4391,175.951,"Waihi Beach",39
"Waikanae Beach",-40.86565261417,175.02394464281,-40.8513,175.041,-40.8755,175.009,"Waikanae",1132
"Waikanae Park",-40.873454393659,175.04591544015,-40.8521,175.057,-40.8803,175.031,"Waikanae",1133
"Huntly",-37.556265006945,175.15725130248,-37.524,175.182,-37.5968,175.081,"Waikato",405
"Matamata",-37.811461949753,175.77503320726,-37.7624,175.823,-37.8279,175.743,"Waikato",573
"Morrinsville",-37.651937212263,175.52935187371,-37.5736,175.547,-37.6701,175.503,"Waikato",616
"Ngaruawahia",-37.669974728634,175.15076265837,-37.6314,175.23,-37.7236,175.07,"Waikato",660
"Raglan",-37.804308595328,174.87137893151,-37.7964,174.888,-37.8381,174.841,"Waikato",852
"Tamahere",-37.833831787109,175.37399800618,-37.8047,175.459,-37.8701,175.297,"Waikato",1015
"Tamihana",-37.757399709601,175.75263173957,-37.7395,175.79,-37.7645,175.725,"Waikato",1018
"Taupiri",-37.617483350966,175.19649844699,-37.6104,175.26,-37.6458,175.187,"Waikato",1025
"Te Aroha",-37.540153043816,175.70597526826,-37.5236,175.72,-37.5685,175.667,"Waikato",1036
"Te Kauwhata",-37.402558326721,175.14858182271,-37.3816,175.217,-37.4115,175.135,"Waikato",1045
"Waitoa",-37.605074882507,175.63250160217,-37.5969,175.648,-37.6243,175.628,"Waikato",1171
"Kaiapoi",-43.383992354075,172.65602705214,-43.3497,172.685,-43.4526,172.622,"Waimakariri",424
"Oxford",-43.296232179154,172.18830161871,-43.2302,172.249,-43.341,172.112,"Waimakariri",757
"Rangiora",-43.307445273342,172.59021078822,-43.2858,172.622,-43.3497,172.407,"Waimakariri",858
"Starvation Hill",-43.2785987854,172.23599243164,-43.2786,172.236,-43.2786,172.236,"Waimakariri",982
"Tuahiwi",-43.326439666748,172.63999938965,-43.3224,172.659,-43.3318,172.616,"Waimakariri",1098
"Waikuku",-43.302049636841,172.66999816895,-43.298,172.702,-43.3061,172.638,"Waimakariri",1139
"Waikuku Beach",-43.286137028744,172.71305204693,-43.2814,172.72,-43.2912,172.702,"Waimakariri",1140
"Woodend Beach",-43.319400787354,172.66600036621,-43.3194,172.666,-43.3194,172.666,"Waimakariri",1250
"Cattle Creek",-44.342700958252,170.58999633789,-44.3427,170.59,-44.3427,170.59,"Waimate",153
"Hakataramea",-44.715600967407,170.46900177002,-44.7079,170.479,-44.7233,170.459,"Waimate",329
"Waimate",-44.733033809256,171.04551161096,-44.7179,171.091,-44.7628,171.002,"Waimate",1145
"Cambridge",-37.888828716059,175.47120666504,-37.8717,175.573,-37.9815,175.416,"Waipa",139
"Ohaupo",-37.919409561157,175.30409698486,-37.9159,175.318,-37.9214,175.282,"Waipa",697
"Pirongia",-37.991722106934,175.20438893636,-37.9839,175.213,-37.9975,175.197,"Waipa",809
"Frasertown",-38.987201690674,177.42799377441,-38.9872,177.428,-38.9872,177.428,"Wairoa",277
"Wairoa",-39.035411789304,177.41895221529,-38.9938,177.434,-39.062,177.392,"Wairoa",1164
"Cornwallis",-36.993333180745,174.60333251953,-36.9785,174.606,-37.006,174.601,"Waitakere",189
"Glen Eden",-36.915110509904,174.64318084717,-36.8913,174.697,-36.9313,174.615,"Waitakere",288
"Glendene",-36.891116808046,174.65352760171,-36.8538,174.664,-36.8988,174.646,"Waitakere",291
"Green Bay",-36.930558363597,174.67728996277,-36.9171,174.691,-36.9355,174.669,"Waitakere",314
"Henderson",-36.879300004345,174.62213874429,-36.839,174.651,-36.9147,174.597,"Waitakere",365
"Henderson Valley",-36.891358155471,174.58500025823,-36.8764,174.605,-36.9106,174.548,"Waitakere",367
"Herald Island",-36.779124736786,174.65637588501,-36.7761,174.661,-36.7807,174.653,"Waitakere",368
"Hobsonville",-36.794183782629,174.65751400509,-36.7804,174.681,-36.8045,174.642,"Waitakere",385
"Huia",-37.000128609794,174.57171412877,-36.9785,174.606,-37.0269,174.53,"Waitakere",401
"Kelston",-36.898576863607,174.6641998291,-36.8917,174.671,-36.9051,174.658,"Waitakere",456
"Kumeu",-36.775033496675,174.54785664876,-36.7634,174.576,-36.8208,174.525,"Waitakere",489
"Laingholm",-36.964199963738,174.63252886604,-36.9553,174.642,-36.9785,174.606,"Waitakere",491
"Massey",-36.836477438609,174.61578478132,-36.808,174.638,-36.8596,174.575,"Waitakere",570
"New Lynn",-36.912881153386,174.67795965924,-36.9008,174.697,-36.9286,174.662,"Waitakere",649
"Nihotupu",-36.95970026652,174.6050008138,-36.9443,174.607,-36.9785,174.602,"Waitakere",666
"Oratia",-36.924958846148,174.60982289034,-36.9147,174.625,-36.9437,174.593,"Waitakere",729
"Parau",-36.976959991455,174.61220397949,-36.9738,174.615,-36.9816,174.606,"Waitakere",782
"Ranui",-36.865454326976,174.60265870528,-36.8552,174.613,-36.8764,174.591,"Waitakere",859
"Sunnyvale",-36.89748087237,174.63657994424,-36.8888,174.648,-36.9023,174.627,"Waitakere",996
"Swanson",-36.870782852173,174.57749938965,-36.8485,174.597,-36.8876,174.55,"Waitakere",1000
"Te Atatu Peninsula",-36.839154538241,174.65092759566,-36.8253,174.662,-36.8555,174.636,"Waitakere",1037
"Te Atatu South",-36.868827081496,174.64700054866,-36.8538,174.655,-36.8841,174.635,"Waitakere",1038
"Titirangi",-36.93658154682,174.65206790665,-36.9164,174.674,-36.9621,174.578,"Waitakere",1082
"Waiatarua",-36.93291015625,174.57859649658,-36.9163,174.607,-36.9495,174.521,"Waitakere",1123
"Waitakere",-36.855355156793,174.54144456651,-36.8208,174.555,-36.8686,174.494,"Waitakere",1165
"West Harbour",-36.815182795891,174.63336592454,-36.8025,174.646,-36.8254,174.617,"Waitakere",1208
"Whenuapai",-36.789797583292,174.62160438715,-36.7756,174.647,-36.8132,174.593,"Waitakere",1233
"Ardgowan",-45.073949813843,170.96199798584,-45.0563,170.969,-45.0916,170.955,"Waitaki",28
"Aviemore",-44.659900665283,170.34700012207,-44.6599,170.347,-44.6599,170.347,"Waitaki",47
"Awamoa",-45.14289855957,170.9340057373,-45.1429,170.934,-45.1429,170.934,"Waitaki",53
"Deborah",-45.087600708008,170.92250061035,-45.0847,170.923,-45.0905,170.922,"Waitaki",208
"Hampden",-45.327828236115,170.8115625626,-45.3061,170.824,-45.3558,170.776,"Waitaki",337
"Hillgrove",-45.355499267578,170.81300354004,-45.3555,170.813,-45.3555,170.813,"Waitaki",382
"Kurow",-44.735165669368,170.45584634634,-44.6482,170.56,-44.8175,170.337,"Waitaki",490
"Makareao",-45.379901885986,170.66200256348,-45.3799,170.662,-45.3799,170.662,"Waitaki",530
"Omarama",-44.485395604914,169.96322631836,-44.3747,170.085,-44.5446,169.803,"Waitaki",708
"Otematata",-44.605961935861,170.1938113258,-44.5446,170.337,-44.6482,170.085,"Waitaki",745
"Otiake",-44.77560043335,170.45899963379,-44.7756,170.459,-44.7756,170.459,"Waitaki",746
"Palmerston",-45.482006862246,170.71448227455,-45.4737,170.721,-45.4904,170.699,"Waitaki",766
"Quailburn",-44.444400787354,169.82667032878,-44.4079,169.897,-44.4677,169.716,"Waitaki",845
"Waianakarua",-45.30350112915,170.7440032959,-45.3035,170.744,-45.3035,170.744,"Waitaki",1121
"Waynes",-45.336498260498,170.6490020752,-45.3365,170.649,-45.3365,170.649,"Waitaki",1200
"Whitstone",-45.007801055908,170.82699584961,-45.0078,170.827,-45.0078,170.827,"Waitaki",1238
"Piopio",-38.466493606567,175.0078125,-38.4331,175.018,-38.514,174.92,"Waitomo",806
"Te Kuiti",-38.335059135191,175.16577476584,-38.3157,175.245,-38.383,175.152,"Waitomo",1047
"Pigeon Valley",-41.387649536133,173.02249908447,-41.3746,173.024,-41.4007,173.021,"Wakefield",801
"Aramoho",-39.898985590254,175.06291089739,-39.8402,175.088,-39.9104,175.016,"Wanganui",25
"Balgownie",-39.949600219727,175.01766459147,-39.9488,175.023,-39.9509,175.009,"Wanganui",63
"Castlecliff",-39.937855542716,174.98849047645,-39.9259,175.017,-39.9451,174.968,"Wanganui",151
"College Estate",-39.931633419461,175.03649987115,-39.922,175.043,-39.9369,175.03,"Wanganui",182
"Durie Hill",-39.936654847244,175.06524132038,-39.9226,175.073,-39.9405,175.056,"Wanganui",224
"Gonville",-39.941482849121,175.02956075033,-39.9217,175.051,-39.95,175.01,"Wanganui",304
"Kowhai Park",-38.970672149658,175.90752197266,-38.0905,176.686,-39.931,175.056,"Wanganui",485
"Okoia",-39.896099090576,175.08000183105,-39.8961,175.08,-39.8961,175.08,"Wanganui",704
"Otamatea",-39.909668849065,175.02699984037,-39.9025,175.034,-39.9145,175.017,"Wanganui",740
"Putiki",-39.94712301401,175.052539532,-39.9418,175.059,-39.9524,175.048,"Wanganui",843
"Springvale",-39.925839474327,175.02273720189,-39.9192,175.034,-39.9372,175.014,"Wanganui",970
"St Johns Hill",-39.916389834496,175.03635578771,-39.9095,175.051,-39.9237,175.028,"Wanganui",976
"Tawhero",-39.934320750989,175.01452877647,-39.9295,175.02,-39.9391,175.01,"Wanganui",1031
"Wanganui Airport",-39.955559539795,175.03959960937,-39.9525,175.047,-39.9597,175.033,"Wanganui",1186
"Wanganui Central",-39.926694375497,175.04870379413,-39.9018,175.065,-39.9411,175.04,"Wanganui",1187
"Wanganui East",-39.91326544835,175.06346071683,-39.9039,175.075,-39.924,175.056,"Wanganui",1188
"Snells Beach",-36.419423915722,174.72744581434,-36.4081,174.739,-36.43,174.72,"Warkworth",951
"Aro Valley",-41.295638668922,174.76390567903,-41.2899,174.773,-41.3094,174.755,"Wellington",32
"Berhampore",-41.191026238834,174.77476366828,-36.9046,174.78,-41.3316,174.742,"Wellington",82
"Breaker Bay",-41.336849212646,174.81800079346,-41.3351,174.825,-41.3386,174.811,"Wellington",107
"Broadmeadows",-41.23475893806,174.7939453125,-41.2309,174.796,-41.2386,174.792,"Wellington",115
"Brooklyn",-41.307613917759,174.76257251558,-41.2962,174.771,-41.3157,174.751,"Wellington",122
"Churton Park",-41.207514102642,174.80619283823,-41.1951,174.818,-41.217,174.798,"Wellington",164
"Crofton Downs",-41.258689199175,174.76242828369,-41.253,174.767,-41.263,174.758,"Wellington",195
"Glenside",-41.200466791789,174.81783040365,-41.1921,174.827,-41.2048,174.81,"Wellington",300
"Grenada North",-41.185943603516,174.83785574777,-41.1819,174.84,-41.1892,174.834,"Wellington",320
"Grenada Village",-41.207627826267,174.82205624051,-41.2035,174.826,-41.2104,174.819,"Wellington",321
"Hataitai",-41.303994232754,174.7965666573,-41.2972,174.805,-41.3166,174.784,"Wellington",348
"Horokiwi",-41.210399627686,174.84033457438,-41.1961,174.849,-41.2467,174.815,"Wellington",396
"Houghton Bay",-41.33821105957,174.787109375,-41.3329,174.791,-41.3441,174.775,"Wellington",398
"Island Bay",-41.274478530884,174.77077178955,-36.9046,174.78,-41.347,174.742,"Wellington",417
"Johnsonville",-41.222680556036,174.8021238884,-41.2039,174.818,-41.2356,174.787,"Wellington",421
"Kaiwharawhara",-41.257127126058,174.79179789225,-41.2467,174.815,-41.2598,174.781,"Wellington",437
"Karaka Bays",-41.301899303089,174.83063437722,-41.2889,174.832,-41.3076,174.829,"Wellington",441
"Karori",-41.286128527158,174.73627253941,-41.254,174.754,-41.3023,174.714,"Wellington",444
"Kelburn",-41.286822170681,174.76540018717,-41.28,174.773,-41.2942,174.752,"Wellington",454
"Khandallah",-41.247119903564,174.79213892027,-41.2356,174.806,-41.2577,174.777,"Wellington",467
"Kilbirnie",-41.317853331566,174.79525136948,-41.3045,174.803,-41.3231,174.79,"Wellington",469
"Kingston",-41.323878028176,174.76354633678,-41.3202,174.768,-41.3344,174.758,"Wellington",474
"Lyall Bay",-41.328233506944,174.79333326552,-41.3207,174.799,-41.3388,174.789,"Wellington",514
"Maupuia",-41.303280067444,174.82054901123,-41.2889,174.832,-41.3126,174.813,"Wellington",585
"Melrose",-41.324815309965,174.78919102595,-41.321,174.793,-41.333,174.786,"Wellington",594
"Miramar",-41.316628646851,174.81881386893,-41.3026,174.829,-41.3293,174.803,"Wellington",605
"Moa Point",-41.338600158691,174.81100463867,-41.3386,174.811,-41.3386,174.811,"Wellington",607
"Mt Cook",-41.30244424608,174.77573988173,-41.2959,174.783,-41.3095,174.769,"Wellington",626
"Mt Victoria",-41.120022243924,174.8674810904,-38.0786,176.288,-41.302,174.776,"Wellington",631
"Newlands",-41.226061550187,174.82251843111,-41.2199,174.837,-41.2361,174.809,"Wellington",654
"Newtown",-41.31355211628,174.78097033145,-41.306,174.789,-41.321,174.774,"Wellington",656
"Ngaio",-41.249567250736,174.77518025383,-41.2411,174.785,-41.2577,174.766,"Wellington",657
"Ngauranga",-41.242888556586,174.81044345432,-41.2369,174.816,-41.2477,174.8,"Wellington",662
"Northland",-41.28016355561,174.75870718607,-41.2681,174.764,-41.288,174.752,"Wellington",681
"Ohariu",-41.202780151367,174.77479858398,-41.1664,174.79,-41.226,174.747,"Wellington",695
"Oriental Bay",-41.292289733887,174.7945022583,-41.2911,174.798,-41.2945,174.788,"Wellington",731
"Owhiro Bay",-41.338163375854,174.75849914551,-41.3316,174.762,-41.3469,174.753,"Wellington",756
"Paparangi",-41.216980908368,174.8179461505,-41.2073,174.824,-41.2211,174.811,"Wellington",775
"Pipitea",-41.274878294572,174.78221860139,-41.2467,174.815,-41.282,174.774,"Wellington",807
"Rongotai",-41.323630571365,174.8041229248,-41.3166,174.812,-41.3386,174.8,"Wellington",900
"Seatoun",-41.321597155403,174.8302935432,-41.306,174.837,-41.3289,174.825,"Wellington",935
"Southgate",-41.337440109253,174.78049926758,-41.3327,174.788,-41.3426,174.776,"Wellington",961
"Strathmore Park",-41.330453087302,174.82176477769,-41.3246,174.829,-41.3367,174.815,"Wellington",991
"Takapu Valley",-41.175899505615,174.84199523926,-41.1759,174.842,-41.1759,174.842,"Wellington",1012
"Tawa",-41.168554319005,174.82604700205,-41.1476,174.842,-41.1877,174.812,"Wellington",1030
"Te Aro",-41.29348934398,174.77674057904,-41.2873,174.786,-41.2988,174.77,"Wellington",1035
"Thorndon",-41.274556111481,174.77532208976,-41.2635,174.782,-41.2839,174.762,"Wellington",1066
"Wadestown",-41.26345567925,174.77481256529,-41.2599,174.784,-41.2681,174.761,"Wellington",1118
"Wellington Central",-41.285126433081,174.77579295879,-41.278,174.782,-41.2959,174.769,"Wellington",1203
"Wilton",-41.269334793091,174.76096050556,-41.2607,174.769,-41.2797,174.754,"Wellington",1240
"Woodridge",-41.215749740601,174.83071245466,-41.2127,174.833,-41.2203,174.829,"Wellington",1253
"Katikati",-37.551623681012,175.92039646822,-37.5383,175.935,-37.5638,175.89,"Western Bay Of Plenty",447
"Omokoroa",-37.634713606401,176.04468189586,-37.6274,176.052,-37.648,176.032,"Western Bay Of Plenty",710
"Te Puke",-37.787827325904,176.32044501927,-37.7736,176.335,-37.8012,176.305,"Western Bay Of Plenty",1051
"Waihi Beach",-37.407084401449,175.93760002984,-37.3893,175.952,-37.4203,175.829,"Western Bay Of Plenty",1127
"Awatuna",-42.60530090332,171.13000488281,-42.6053,171.13,-42.6053,171.13,"Westland",58
"Hokitika",-42.716442584991,170.97245063782,-42.6481,171.058,-42.7531,170.926,"Westland",387
"Kaniere",-42.750746663411,171.00373535156,-42.7259,171.076,-42.8263,170.959,"Westland",440
"Kokatahi",-42.826301574707,171.03399658203,-42.8263,171.034,-42.8263,171.034,"Westland",480
"Kumara",-42.637115287781,171.19820098877,-42.6031,171.374,-42.7615,171.155,"Westland",486
"Kumara Junction",-42.624928610665,171.17742701939,-42.5748,171.374,-42.7615,171.116,"Westland",488
"Ross",-42.901847278371,170.81302867216,-42.8548,170.875,-43.0093,170.672,"Westland",908
"Carters Beach",-41.748671395438,171.56071690151,-41.7474,171.563,-41.7499,171.558,"Westport",146
"Coastlands",-37.934672249688,176.97333187527,-37.9315,176.978,-37.9378,176.969,"Whakatane",179
"Edgecumbe",-37.97833442688,176.82434551532,-37.9493,176.858,-38.0082,176.778,"Whakatane",233
"Maraetotara",-38.578800201416,176.97967020671,-37.9604,177.02,-39.81,176.905,"Whakatane",559
"Murupara",-38.456575234731,176.7073319753,-38.4511,176.712,-38.4607,176.703,"Whakatane",636
"Ohope",-37.97611097856,177.07393160733,-37.958,177.119,-38.0193,177.014,"Whakatane",699
"Poroporo",-37.966807229178,176.96828460693,-37.9647,176.971,-37.9693,176.965,"Whakatane",825
"Taneatua",-38.062615908109,177.00530888484,-38.0228,177.011,-38.1009,176.995,"Whakatane",1019
"Whakatane",-37.960636422441,176.98783771412,-37.9473,177.009,-37.9796,176.96,"Whakatane",1225
"Arkles Bay",-36.640938864814,174.7420018514,-36.6358,174.75,-36.6464,174.725,"Whangaparaoa",30
"Army Bay",-36.604512214661,174.80175018311,-36.602,174.807,-36.6065,174.793,"Whangaparaoa",31
"Gulf Harbour",-36.61229598999,174.79382080078,-36.6059,174.805,-36.624,174.783,"Whangaparaoa",327
"Manly",-36.63262757388,174.75697916204,-36.6261,174.768,-36.6401,174.738,"Whangaparaoa",545
"Redvale",-36.624699760886,174.67947028665,-36.6158,174.699,-36.6836,174.675,"Whangaparaoa",872
"Stanmore Bay",-36.62557126398,174.73276592934,-36.6126,174.751,-36.6373,174.713,"Whangaparaoa",981
"Tindalls Beach",-36.622371401106,174.77442932129,-36.616,174.784,-36.633,174.766,"Whangaparaoa",1075
"Abbey Caves",-35.728032430013,174.35433451335,-35.7199,174.367,-35.7329,174.344,"Whangarei",1
"Avenues",-35.726160049438,174.3141998291,-35.7176,174.321,-35.7315,174.309,"Whangarei",46
"Glenbervie",-35.646999359131,174.41999816895,-35.647,174.42,-35.647,174.42,"Whangarei",290
"Hikurangi",-35.594559783936,174.28647949219,-35.5717,174.342,-35.6093,174.262,"Whangarei",378
"Horahora",-35.738955993652,174.28640075684,-35.7321,174.3,-35.7435,174.277,"Whangarei",393
"Kamo",-35.683162615849,174.29871118986,-35.6271,174.318,-35.6973,174.104,"Whangarei",438
